|COD_COL|COLE_INST_NOMBRE|COLE_DEPTO_COLEGIO|COLE_CALENDARIO_COLEGIO|COLE_GENEROPOBLACION|EVALUADOS_ULTIMOS_3|COLE_NATURALEZA|INDICE_MATEMATICAS|INDICE_C_NATURALES|INDICE_SOCIALES_CIUDADANAS|INDICE_LECTURA_CRITICA|INDICE_INGLES|INDICE_TOTAL|COLE_CATEGORIA|NOMBRE_DEPARTAMENTO|NOMBRE_MUNICIPIO|ZONA|LATITUD|LONGITUD|MODE_ESTRATOVIVIENDA|IND_EST_TRAB|MODE_EDU_MADRE|MODE_EDU_PADRE|IND_BILINGUE|CARACTER_IE|INDICE_AJUST|Cluster
0|205790000235|I. E. LA INMACULADA|ANTIOQUIA|A|MI|61|OFICIAL|0.54|0.5809|0.5543|0.615|0.5495|0.5708|D|ANTIOQUIA|TARAZA|Rural|7.444543834|-75.30775543|Estrato 1|0|Primaria incompleta|Primaria incompleta|N|ACADEMICO|0.20611923384200176|0
1|105147000568|I. E. JOSE MARIA MUNOZ FLOREZ|ANTIOQUIA|A|MI|262|OFICIAL|0.6977|0.665|0.6726|0.7084|0.6564|0.6836|B|ANTIOQUIA|CAREPA|Urbano|7.7588151253|-76.65827802|Estrato 2|0|Secundaria (Bachillerato) completa|Secundaria (Bachillerato) completa|N|TECNICO/ACADEMICO|0.6250999865229698|3
2|105147000401|I. E. COLOMBIA|ANTIOQUIA|A|MI|238|OFICIAL|0.6607|0.6462|0.6305|0.6924|0.6099|0.6538|C|ANTIOQUIA|CAREPA|Urbano|7.758056|-76.651667|Estrato 2|0|Secundaria (Bachillerato) completa|Primaria incompleta|N|ACADEMICO|0.5798025545253344|5
3|205138000142|I. E. R. BUENOS AIRES|ANTIOQUIA|A|MI|75|OFICIAL|0.6999|0.6628|0.6659|0.7133|0.5786|0.6772|B|ANTIOQUIA|CANASGORDAS|Rural|6.7291626120000005|-76.01037273|Estrato 1|0|Primaria incompleta|Primaria incompleta|N|ACADEMICO|0.264988152041967|0
4|205138000142|I. E. R. BUENOS AIRES|ANTIOQUIA|A|MI|74|OFICIAL|0.4922|0.5244|0.5351|0.5914|0.5083|0.5337|D|ANTIOQUIA|CANASGORDAS|Rural|6.7291626120000005|-76.01037273|Estrato 1|0|Primaria incompleta|Primaria incompleta|N|ACADEMICO|0.234362261475238|0
5|105134000046|I. E.  NUESTRA SENORA DEL ROSARIO|ANTIOQUIA|A|MI|113|OFICIAL|0.6191|0.6511|0.6367|0.6797|0.6032|0.6433|C|ANTIOQUIA|CAMPAMENTO|Urbano|6.978889|-75.299444|Estrato 1|0|Primaria incompleta|Primaria incompleta|N|ACADEMICO|0.35414519599900357|0
6|205858000093|I. E. JHON F. KENNEDY|ANTIOQUIA|A|MI|111|OFICIAL|0.5094|0.5626|0.5348|0.586|0.5427|0.5478|D|ANTIOQUIA|VEGACHI|Rural|6.86212645|-74.79821047|Estrato 1|0|Primaria incompleta|Primaria incompleta|N|ACADEMICO|0.32425504136173433|0
7|205858000093|I. E. JHON F. KENNEDY|ANTIOQUIA|A|MI|107|OFICIAL|0.49|0.5161|0.5244|0.5529|0.5052|0.5197|D|ANTIOQUIA|VEGACHI|Rural|6.86212645|-74.79821047|Estrato 1|0|Primaria incompleta|Primaria incompleta|N|ACADEMICO|0.30834089665342|0
8|105147000045|I. E. LUIS CARLOS GALAN SARMIENTO|ANTIOQUIA|A|MI|293|OFICIAL|0.73|0.7112|0.7078|0.7331|0.6899|0.7182|B|ANTIOQUIA|CAREPA|Urbano|7.749638417000001|-76.65048725|Estrato 2|0|Secundaria (Bachillerato) completa|Primaria incompleta|N|ACADEMICO|0.6798818757705414|5
9|105467000019|I. E. MARIANO J. VILLEGAS|ANTIOQUIA|A|MI|116|OFICIAL|0.7119|0.7109|0.7099|0.736|0.6693|0.7135|B|ANTIOQUIA|MONTEBELLO|Urbano|5.944137327999999|-75.52219712|Estrato 1|0|Primaria incompleta|Primaria incompleta|N|TECNICO/ACADEMICO|0.38016891214114457|0
10|105467000019|I. E. MARIANO J. VILLEGAS|ANTIOQUIA|A|MI|38|OFICIAL|0.5471|0.5986|0.5589|0.6016|0.5549|0.5749|D|ANTIOQUIA|MONTEBELLO|Urbano|5.944137327999999|-75.52219712|Estrato 1|0|Primaria incompleta|Primaria incompleta|N|TECNICO/ACADEMICO|0.13738005312357557|0
11|205079000206|I. E. R. YARUMITO|ANTIOQUIA|A|MI|127|OFICIAL|0.6325|0.6435|0.6292|0.6788|0.6059|0.6429|C|ANTIOQUIA|BARBOSA|Rural|6.472883158999999|-75.27342801|Estrato 2|0|Secundaria (Bachillerato) incompleta|Primaria incompleta|N|TECNICO/ACADEMICO|0.3851038288403742|3
12|205591000072|I. E. R. ESTACION COCORNA|ANTIOQUIA|A|MI|33|OFICIAL|0.6197|0.66|0.6501|0.6868|0.6397|0.653|C|ANTIOQUIA|PUERTO TRIUNFO|Rural|6.032939905|-74.6374142|Estrato 2|0|Secundaria (Bachillerato) incompleta|Primaria incompleta|None|ACADEMICO|0.12860293530085504|5
13|205490000098|I.E.R. MELLO VILLAVICENCIO|ANTIOQUIA|A|MI|78|OFICIAL|0.4932|0.5298|0.5143|0.5659|0.5163|0.525|D|ANTIOQUIA|NECOCLI|Rural|8.455556|-76.56611099999999|Estrato 1|0|Primaria incompleta|Primaria incompleta|N|ACADEMICO|0.2427159125674176|0
14|105890001331|I. E. ESCUELA NORMAL SUPERIOR DEL NORDESTE|ANTIOQUIA|A|MI|120|OFICIAL|0.6664|0.6263|0.6429|0.6965|0.6159|0.6548|C|ANTIOQUIA|YOLOMBO|Urbano|6.5931178695|-75.01611471|Estrato 2|0|Secundaria (Bachillerato) completa|Primaria incompleta|N|TECNICO/ACADEMICO|0.373158846332705|3
15|205129000130|I. E.  SALINAS|ANTIOQUIA|A|MI|83|OFICIAL|0.5883|0.6087|0.6073|0.6566|0.6128|0.615|D|ANTIOQUIA|CALDAS|Rural|6.08789058|-75.64419518|Estrato 2|0|Primaria incompleta|Primaria incompleta|N|ACADEMICO|0.27406462459316583|5
16|105088001539|IE ANDRES BELLO|ANTIOQUIA|A|MI|264|OFICIAL|0.7557|0.7414|0.7501|0.7789|0.7715|0.7577|A|ANTIOQUIA|BELLO|Urbano|6.3382157467999996|-75.55825554|Estrato 3|0|Secundaria (Bachillerato) completa|Secundaria (Bachillerato) completa|N|TECNICO|0.6618526202087271|1
17|105212000082|I. E. SAN LUIS GONZAGA|ANTIOQUIA|A|MI|317|OFICIAL|0.7486|0.7376|0.7126|0.7482|0.7525|0.738|A|ANTIOQUIA|COPACABANA|Urbano|6.3449750083000005|-75.51668520000001|Estrato 2|0|Secundaria (Bachillerato) completa|Secundaria (Bachillerato) completa|N|TECNICO/ACADEMICO|0.7173771928317383|3
18|105212000368|I. E. VILLANUEVA|ANTIOQUIA|A|MI|68|OFICIAL|0.7503|0.7221|0.7004|0.7293|0.7126|0.7245|A|ANTIOQUIA|COPACABANA|Urbano|6.3485841096|-75.51268564|Estrato 2|0|Secundaria (Bachillerato) completa|Secundaria (Bachillerato) completa|N|ACADEMICO|0.25327264381548925|5
19|105579000259|I. E. AMERICA|ANTIOQUIA|A|MI|122|OFICIAL|0.6063|0.5976|0.6029|0.6657|0.5866|0.6157|D|ANTIOQUIA|PUERTO BERRIO|Urbano|6.483611|-74.408333|Estrato 1|0|Primaria incompleta|Primaria incompleta|S|ACADEMICO|0.366529086952597|0
20|105847000241|I. E. R. JAIPERA|ANTIOQUIA|A|MI|114|OFICIAL|0.6137|0.5943|0.5871|0.6532|0.5845|0.61|D|ANTIOQUIA|URRAO|Urbano|6.326552062899999|-76.13523432|Estrato 2|0|Primaria incompleta|Primaria incompleta|N|TECNICO/ACADEMICO|0.34744384842548587|3
21|105847000771|I. E. ESCUELA NORMAL SUPERIOR SAGRADA FAMILIA|ANTIOQUIA|A|MI|300|OFICIAL|0.7067|0.6948|0.6999|0.7358|0.6539|0.705|B|ANTIOQUIA|URRAO|Urbano|6.3159827465|-76.13617928|Estrato 2|0|Secundaria (Bachillerato) completa|Primaria incompleta|N|TECNICO/ACADEMICO|0.681604199754634|3
22|105212000830|I. E.  LA TRINIDAD|ANTIOQUIA|A|MI|165|OFICIAL|0.7363|0.7333|0.7213|0.7622|0.7383|0.7383|A|ANTIOQUIA|COPACABANA|Urbano|6.3365882485|-75.52783212|Estrato 2|0|Secundaria (Bachillerato) completa|Secundaria (Bachillerato) completa|N|ACADEMICO|0.4934194149395924|5
23|205212000061|I. E. R. GRANJAS INFANTILES|ANTIOQUIA|A|MI|78|OFICIAL|0.6454|0.6601|0.6594|0.6958|0.6503|0.6641|C|ANTIOQUIA|COPACABANA|Rural|6.355|-75.509722|Estrato 2|0|Secundaria (Bachillerato) incompleta|Primaria incompleta|N|TECNICO|0.27080237386692574|3
24|105628000227|I. E. SAN JOSE|ANTIOQUIA|A|MI|93|OFICIAL|0.6377|0.6442|0.6465|0.6556|0.631|0.6448|C|ANTIOQUIA|SABANALARGA|Urbano|6.8471850477|-75.81681812|Estrato 2|0|Secundaria (Bachillerato) completa|Primaria incompleta|N|ACADEMICO|0.3063382725151522|5
25|105129000071|I. E. FEDERICO ANGEL|ANTIOQUIA|A|MI|306|OFICIAL|0.6522|0.6738|0.6518|0.6938|0.6768|0.6686|C|ANTIOQUIA|CALDAS|Urbano|6.083309135|-75.6343435|Estrato 2|0|Secundaria (Bachillerato) completa|Secundaria (Bachillerato) completa|None|ACADEMICO|0.670313904289368|5
26|105631000491|I. E. CONCEJO DE SABANETA JOSE MARIA CEBALLOS BOTERO|ANTIOQUIA|A|MI|106|OFICIAL|0.7385|0.7388|0.7516|0.7615|0.7525|0.748|A|ANTIOQUIA|SABANETA|Urbano|6.1532292275|-75.6066666|Estrato 2|0|Secundaria (Bachillerato) completa|Secundaria (Bachillerato) completa|N|ACADEMICO|0.3646077920938037|5
27|205631000160|I. E. MARIA AUXILIADORA|ANTIOQUIA|A|MI|72|OFICIAL|0.6776|0.6837|0.7074|0.7283|0.6912|0.6986|B|ANTIOQUIA|SABANETA|Rural|6.149787475|-75.59818908|Estrato 2|0|Secundaria (Bachillerato) completa|Secundaria (Bachillerato) completa|None|ACADEMICO|0.2604469112032041|5
28|205308000452|I. E. SAN ANDRES|ANTIOQUIA|A|MI|71|OFICIAL|0.7222|0.7288|0.7252|0.7505|0.708|0.7299|A|ANTIOQUIA|GIRARDOTA|Rural|6.399754126|-75.43991778|Estrato 2|0|Secundaria (Bachillerato) completa|Secundaria (Bachillerato) completa|None|ACADEMICO|0.26336565835717385|5
29|105250000169|I. E. EL BAGRE|ANTIOQUIA|A|MI|307|OFICIAL|0.645|0.6279|0.6483|0.6842|0.6164|0.6487|C|ANTIOQUIA|EL BAGRE|Urbano|7.612506636|-74.80087889|Estrato 1|0|Primaria incompleta|Primaria incompleta|N|TECNICO/ACADEMICO|0.661482524818237|0
30|205036000083|I. E. LOS ANGELES|ANTIOQUIA|A|MI|45|OFICIAL|0.6446|0.6713|0.6528|0.7035|0.6609|0.6675|C|ANTIOQUIA|ANGELOPOLIS|Rural|6.10051827|-75.71029801|Estrato 1|0|Primaria incompleta|Primaria incompleta|N|ACADEMICO|0.17125806738355953|0
31|205837002151|I.E. NUEVO ORIENTE|ANTIOQUIA|A|MI|24|OFICIAL|0.5234|0.5736|0.5567|0.6185|0.546|0.5664|D|ANTIOQUIA|TURBO|Rural|7.516679942000001|-76.70902734|Sin Estrato|0|Primaria completa|Primaria incompleta|N|TECNICO/ACADEMICO|0.08980796502214718|1
32|105501000198|I. E.  OLAYA|ANTIOQUIA|A|MI|59|OFICIAL|0.6013|0.5817|0.5905|0.6508|0.5724|0.6035|D|ANTIOQUIA|OLAYA|Urbano|6.627114907|-75.81239527|Estrato 2|0|Primaria incompleta|Primaria incompleta|N|ACADEMICO|0.20569943051033568|5
33|205686000282|I.E.R. BOCA DEL MONTE|ANTIOQUIA|A|MI|28|OFICIAL|0.5973|0.5818|0.5961|0.6388|0.5729|0.6011|D|ANTIOQUIA|SANTA ROSA DE OSOS|Rural|6.718333|-75.432778|Estrato 2|0|Primaria completa|Primaria incompleta|N|ACADEMICO|0.10641882616612972|5
34|305088020079|I.E NATACHA Y MICHAEL D|ANTIOQUIA|A|MI|109|NO OFICIAL|0.7021|0.7151|0.6983|0.7440000000000001|0.7161|0.715|B|ANTIOQUIA|BELLO|Urbano|6.346589794|-75.57009575|Estrato 3|0|Secundaria (Bachillerato) completa|Secundaria (Bachillerato) completa|None|ACADEMICO|0.363611805922766|2
35|105686000440|I. E. ESCUELA NORMAL SUPERIOR PEDRO JUSTO BERRIO|ANTIOQUIA|A|MI|190|OFICIAL|0.7573|0.7583|0.7672|0.7647|0.741|0.7603|A|ANTIOQUIA|SANTA ROSA DE OSOS|Urbano|6.649327576|-75.46008235|Estrato 2|0|Secundaria (Bachillerato) completa|Secundaria (Bachillerato) completa|N|TECNICO/ACADEMICO|0.5480625365913527|3
36|105001007978|INST EDUC PABLO NERUDA|ANTIOQUIA|A|MI|129|OFICIAL|0.6271|0.6505|0.6394|0.6935|0.6355|0.6513|C|ANTIOQUIA|MEDELLIN|Urbano|6.29063492200004|-75.559981584|Estrato 2|0|Secundaria (Bachillerato) completa|Secundaria (Bachillerato) completa|N|ACADEMICO|0.3918573723430594|5
37|105001002470|INST EDUC SAN VICENTE DE PAUL|ANTIOQUIA|A|MI|350|OFICIAL|0.7047|0.7016|0.6968|0.7343|0.7036|0.7089|B|ANTIOQUIA|MEDELLIN|Urbano|6.2787047410000705|-75.577768277|Estrato 3|0|Secundaria (Bachillerato) completa|Secundaria (Bachillerato) completa|N|ACADEMICO|0.7368800554395684|2
38|105001002461|INST EDUC LUCRECIO JARAMILLO VELEZ|ANTIOQUIA|A|MI|283|OFICIAL|0.7905|0.7736|0.7805|0.7958|0.7977|0.7861|A+|ANTIOQUIA|MEDELLIN|Urbano|6.24623397700003|-75.599492438|Estrato 3|0|Secundaria (Bachillerato) completa|Secundaria (Bachillerato) completa|N|ACADEMICO|0.7002807555281612|2
39|105001002101|INSTITUCION EDUCATIVA JUAN DE DIOS COCK|ANTIOQUIA|A|MI|194|OFICIAL|0.6952|0.6846|0.6728|0.7302|0.6854|0.6949|B|ANTIOQUIA|MEDELLIN|Urbano|6.2808943390000405|-75.553428399|Estrato 2|0|Secundaria (Bachillerato) completa|Secundaria (Bachillerato) completa|N|ACADEMICO|0.5298853801439001|5
40|105001010111|INST EDUC MAESTRO FERNANDO BOTERO|ANTIOQUIA|A|MI|239|OFICIAL|0.6791|0.6952|0.6694|0.7182|0.6589|0.688|B|ANTIOQUIA|MEDELLIN|Urbano|6.30161976800002|-75.57193329399999|Estrato 3|0|Secundaria (Bachillerato) completa|Secundaria (Bachillerato) completa|None|TECNICO/ACADEMICO|0.5961096321083366|1
41|105045001454|I.E. SAN FRACISCO DE ASIS|ANTIOQUIA|A|MI|309|OFICIAL|0.6938|0.6863|0.6974|0.7307|0.6573|0.6986|B|ANTIOQUIA|APARTADO|Urbano|7.88152828302853|-76.6241196354401|Estrato 2|0|Secundaria (Bachillerato) completa|Secundaria (Bachillerato) completa|N|ACADEMICO|0.6886130402593006|5
42|105001019534|INST EDUC RODRIGO LARA BONILLA|ANTIOQUIA|A|MI|163|OFICIAL|0.6128|0.6322|0.6339|0.6818|0.6263|0.6391|C|ANTIOQUIA|MEDELLIN|Urbano|6.264129099000059|-75.54076696399991|Estrato 1|0|Secundaria (Bachillerato) completa|Primaria completa|N|ACADEMICO|0.45519855051878666|0
43|105001011690|INST EDUC FEDERICO CARRASQUILLA|ANTIOQUIA|A|MI|128|OFICIAL|0.7054|0.6869|0.6896|0.725|0.6933|0.7011|B|ANTIOQUIA|MEDELLIN|Urbano|6.298644676000039|-75.54929220799991|Estrato 2|0|Secundaria (Bachillerato) incompleta|Primaria incompleta|N|TECNICO/ACADEMICO|0.40432102408874027|3
44|105001011690|INST EDUC FEDERICO CARRASQUILLA|ANTIOQUIA|A|MI|100|OFICIAL|0.5262|0.5477|0.535|0.6157|0.5317|0.5543|D|ANTIOQUIA|MEDELLIN|Urbano|6.298644676000039|-75.54929220799991|Estrato 2|0|Secundaria (Bachillerato) incompleta|Primaria incompleta|N|TECNICO/ACADEMICO|0.30158366781838836|3
45|105001004791|INST EDUC SANTO ANGEL|ANTIOQUIA|A|F|298|OFICIAL|0.7871|0.7687|0.7636|0.7952|0.8213|0.7819|A+|ANTIOQUIA|MEDELLIN|Urbano|6.20780702300268|-75.5876649408945|Estrato 3|0|Tecnica o tecnologica completa|Secundaria (Bachillerato) completa|N|ACADEMICO|0.7170903883874962|2
46|105368000066|I. E. ESCUELA NORMAL SUPERIOR DE JERICO|ANTIOQUIA|A|MI|235|OFICIAL|0.7052|0.7158|0.7013|0.7453|0.6855|0.7145|B|ANTIOQUIA|JERICO|Urbano|5.7935173764|-75.78715279|Estrato 2|0|Primaria completa|Primaria incompleta|N|TECNICO/ACADEMICO|0.6019106151115088|3
47|105001000132|INST EDUC JOSE MARIA BERNAL|ANTIOQUIA|A|MI|193|OFICIAL|0.7514|0.7523|0.7652|0.7854|0.7561|0.763|A|ANTIOQUIA|MEDELLIN|Urbano|6.220329970000019|-75.593627225|Estrato 3|0|Secundaria (Bachillerato) completa|Secundaria (Bachillerato) completa|None|ACADEMICO|0.5544240182138012|2
48|205034000078|I. E. R. CARBONERA|ANTIOQUIA|A|MI|51|OFICIAL|0.6194|0.6513|0.6357|0.6917|0.5886|0.6449|C|ANTIOQUIA|ANDES|Rural|5.6375|-75.848889|Estrato 2|1|Primaria completa|Primaria incompleta|None|ACADEMICO|0.18764339521521417|5
49|305001004854|INST EDUC ALVERNIA|ANTIOQUIA|A|MI|185|OFICIAL|0.7025|0.7029|0.7121|0.745|0.7115|0.7153|B|ANTIOQUIA|MEDELLIN|Urbano|6.27690823100005|-75.561851008|Estrato 3|0|Tecnica o tecnologica completa|Secundaria (Bachillerato) completa|N|ACADEMICO|0.5221725753191946|2
50|205376000070|I. E. FRANCISCO MARIA CARDONA|ANTIOQUIA|A|MI|58|OFICIAL|0.7456|0.6973|0.6962|0.7135|0.7207|0.7137|B|ANTIOQUIA|LA CEJA|Rural|5.966211373999999|-75.48811317|Estrato 2|0|Secundaria (Bachillerato) completa|Primaria incompleta|N|ACADEMICO|0.22021412697445758|5
51|105001000108|INST EDUC CEFA|ANTIOQUIA|A|F|2767|OFICIAL|0.7424|0.7417|0.7404|0.7794|0.7265|0.7491|A|ANTIOQUIA|MEDELLIN|Urbano|6.246276856000071|-75.5617665729999|Estrato 2|0|Secundaria (Bachillerato) completa|Secundaria (Bachillerato) completa|N|TECNICO/ACADEMICO|1.2831924176986833|3
52|105001000256|INST EDUC HECTOR ABAD GOMEZ|ANTIOQUIA|A|MI|358|OFICIAL|0.6795|0.6814|0.6779999999999999|0.7213|0.6694|0.6885|B|ANTIOQUIA|MEDELLIN|Urbano|6.2456992430000495|-75.56035456800001|Estrato 2|0|Secundaria (Bachillerato) completa|Primaria incompleta|N|TECNICO/ACADEMICO|0.7337125460325494|3
53|105313000016|I. E. JORGE ALBERTO GOMEZ GOMEZ|ANTIOQUIA|A|MI|252|OFICIAL|0.7331|0.6996|0.6978|0.7349|0.6779|0.7134|B|ANTIOQUIA|GRANADA|Urbano|6.135|-75.179722|Estrato 1|0|Primaria completa|Primaria incompleta|N|TECNICO/ACADEMICO|0.6253747298893895|0
54|205809000088|I. E. BENJAMIN CORREA ALVAREZ|ANTIOQUIA|A|MI|52|OFICIAL|0.6525|0.6527|0.6773|0.7002|0.5979|0.6651|C|ANTIOQUIA|TITIRIBI|Rural|6.059182845|-75.75366362|Estrato 2|0|Secundaria (Bachillerato) completa|Secundaria (Bachillerato) incompleta|None|ACADEMICO|0.19370701642111832|5
55|105088002896|IE CONCEJO DE BELLO|ANTIOQUIA|A|MI|179|OFICIAL|0.7318|0.7271|0.7314|0.7734|0.7426|0.741|A|ANTIOQUIA|BELLO|Urbano|6.3407198476|-75.55334515|Estrato 3|0|Secundaria (Bachillerato) completa|Secundaria (Bachillerato) completa|N|TECNICO|0.5208984910953085|1
56|105088002896|IE CONCEJO DE BELLO|ANTIOQUIA|A|MI|99|OFICIAL|0.5831|0.5874|0.5927|0.6537|0.6297|0.6062|D|ANTIOQUIA|BELLO|Urbano|6.3407198476|-75.55334515|Estrato 3|0|Secundaria (Bachillerato) completa|Secundaria (Bachillerato) completa|N|TECNICO|0.3119158984889405|1
57|105088002306|IE GILBERTO ECHEVERRI MEJIA|ANTIOQUIA|A|MI|181|OFICIAL|0.703|0.6920000000000001|0.6792|0.7398|0.7078|0.7038|B|ANTIOQUIA|BELLO|Urbano|6.3475570371000005|-75.55870618|Estrato 2|0|Secundaria (Bachillerato) completa|Secundaria (Bachillerato) completa|None|ACADEMICO|0.5108047556553215|5
58|105206000186|I. E.  PRESBITERO LIBARDO AGUIRRE|ANTIOQUIA|A|MI|63|OFICIAL|0.6778|0.6379|0.6536|0.7017|0.6344|0.6652|C|ANTIOQUIA|CONCEPCION|Urbano|6.394200062|-75.25667028|Estrato 1|1|Primaria incompleta|Primaria incompleta|N|ACADEMICO|0.22774781925466256|0
59|105001000931|INST EDUC DIEGO ECHAVARRIA MISAS|ANTIOQUIA|A|MI|550|OFICIAL|0.7176|0.72|0.7235|0.7598|0.703|0.7281|A|ANTIOQUIA|MEDELLIN|Urbano|6.30799252400004|-75.56871783|Estrato 3|0|Secundaria (Bachillerato) completa|Secundaria (Bachillerato) completa|N|TECNICO/ACADEMICO|0.900432673466578|1
60|105001012165|INST EDUC GUADALUPE|ANTIOQUIA|A|MI|156|OFICIAL|0.6123|0.6085|0.6068|0.6739|0.6157|0.6246|C|ANTIOQUIA|MEDELLIN|Urbano|6.2866152950000505|-75.5501003799999|Estrato 2|0|Secundaria (Bachillerato) incompleta|Primaria incompleta|N|TECNICO/ACADEMICO|0.43734635806501576|3
61|105001012700|INST EDUC SAN PABLO|ANTIOQUIA|A|MI|217|OFICIAL|0.6581|0.6777|0.664|0.7104|0.6362|0.6744|B|ANTIOQUIA|MEDELLIN|Urbano|6.288242181000039|-75.5468378899999|Estrato 2|0|Secundaria (Bachillerato) completa|Secundaria (Bachillerato) completa|N|ACADEMICO|0.5582869733627224|5
62|105001000795|INST EDUC ALFREDO COCK ARANGO|ANTIOQUIA|A|MI|148|OFICIAL|0.6694|0.6764|0.6842|0.7255|0.6988|0.6897|B|ANTIOQUIA|MEDELLIN|Urbano|6.296667307678441|-75.5736238106889|Estrato 3|0|Secundaria (Bachillerato) completa|Secundaria (Bachillerato) completa|N|TECNICO|0.4433078788603264|1
63|105001000795|INST EDUC ALFREDO COCK ARANGO|ANTIOQUIA|A|MI|174|OFICIAL|0.5313|0.5436|0.5348|0.6154|0.5797|0.5581|D|ANTIOQUIA|MEDELLIN|Urbano|6.296667307678441|-75.5736238106889|Estrato 3|0|Secundaria (Bachillerato) completa|Secundaria (Bachillerato) completa|N|TECNICO|0.44561249042552653|1
64|205147000309|I. E. R. INDIGENISTA POLINES|ANTIOQUIA|A|MI|24|OFICIAL|0.4419|0.4951|0.4603|0.5002|0.4995|0.4763|D|ANTIOQUIA|CHIGORODO|Rural|7.7066669999999995|-76.55194399999999|Estrato 1|1|Educacion profesional completa|Educacion profesional completa|None|ACADEMICO|0.08330059216629404|0
65|105021000139|I. E. PROCESA DELGADO|ANTIOQUIA|A|MI|75|OFICIAL|0.6903|0.6876|0.6841|0.7277|0.6396|0.6929|B|ANTIOQUIA|ALEJANDRIA|Urbano|6.37861111111|-75.1408333333|Estrato 2|0|Secundaria (Bachillerato) completa|Primaria incompleta|N|ACADEMICO|0.26806015830338104|5
66|205615000214|I. E. SAN JOSE DE LAS CUCHILLAS|ANTIOQUIA|A|MI|101|OFICIAL|0.7008|0.7047|0.6859|0.7258|0.693|0.7035|B|ANTIOQUIA|RIONEGRO|Rural|6.1825|-75.394444|Estrato 2|0|Primaria incompleta|Primaria incompleta|N|ACADEMICO|0.3406723129390433|5
67|205360000151|I.E. LOS GOMEZ|ANTIOQUIA|A|MI|141|OFICIAL|0.6464|0.6523|0.6463|0.7008|0.6441|0.6601|C|ANTIOQUIA|ITAGUI|Rural|6.190601578|-75.61139154|Estrato 1|0|Primaria incompleta|Primaria incompleta|N|ACADEMICO|0.41963147632773123|0
68|105154000280|I. E. SANTO DOMINGO|ANTIOQUIA|A|MI|136|OFICIAL|0.6897|0.7127|0.6817|0.7170000000000001|0.6526|0.6966|B|ANTIOQUIA|CAUCASIA|Urbano|7.997778|-75.199444|Estrato 1|0|Secundaria (Bachillerato) completa|Primaria incompleta|N|ACADEMICO|0.42047848691320555|0
69|105674000053|I. E. SAN VICENTE FERRER|ANTIOQUIA|A|MI|252|OFICIAL|0.7529|0.7373|0.7226|0.7522|0.713|0.7391|A|ANTIOQUIA|SAN VICENTE|Urbano|6.2794225099|-75.3322053|Estrato 2|0|Primaria completa|Primaria incompleta|N|TECNICO/ACADEMICO|0.636933537670935|3
70|205138000622|I. E. R. JUNTAS DE URAMITA|ANTIOQUIA|A|MI|36|OFICIAL|0.5685|0.6162|0.5993|0.6306|0.5472|0.5993|D|ANTIOQUIA|CANASGORDAS|Rural|6.9247561520000005|-76.03125986|Estrato 1|0|Primaria incompleta|Primaria incompleta|None|ACADEMICO|0.13345681140078205|0
71|205001002199|INST EDUC CARLOS ALBERTO CALDERON|ANTIOQUIA|A|MI|171|OFICIAL|0.636|0.6545|0.6563|0.6875|0.6532|0.6582|C|ANTIOQUIA|MEDELLIN|Rural|6.295782|-75.649905|Estrato 2|0|Primaria incompleta|Primaria incompleta|N|TECNICO/ACADEMICO|0.4763832793347048|3
72|205890000356|I. E. R. GUILLERMO AGUILAR|ANTIOQUIA|A|MI|59|OFICIAL|0.5541|0.5561|0.5594|0.6279|0.5629|0.5735|D|ANTIOQUIA|YOLOMBO|Rural|6.650556|-74.995278|Estrato 1|0|Primaria incompleta|Primaria incompleta|N|TECNICO/ACADEMICO|0.20088048142239667|0
73|105440000131|I. E. SAN JOSE|ANTIOQUIA|A|MI|228|OFICIAL|0.7248|0.7026|0.695|0.7323|0.6697|0.7103|B|ANTIOQUIA|MARINILLA|Urbano|6.1718071236|-75.33293943|Estrato 2|0|Secundaria (Bachillerato) completa|Primaria incompleta|N|TECNICO/ACADEMICO|0.5898181509978844|3
74|105440000131|I. E. SAN JOSE|ANTIOQUIA|A|MI|123|OFICIAL|0.5377|0.5777|0.5595|0.6112|0.5647|0.5710000000000001|D|ANTIOQUIA|MARINILLA|Urbano|6.1718071236|-75.33293943|Estrato 2|0|Secundaria (Bachillerato) completa|Primaria incompleta|N|TECNICO/ACADEMICO|0.35592889457779964|3
75|105360001357|INSTITUCION EDUCATIVA LOMA LINDA|ANTIOQUIA|A|MI|196|OFICIAL|0.6951|0.7042|0.6975|0.7489|0.7042|0.7109|B|ANTIOQUIA|ITAGUI|Urbano|6.182096155|-75.60856135|Estrato 2|0|Secundaria (Bachillerato) completa|Secundaria (Bachillerato) completa|N|TECNICO/ACADEMICO|0.5394435032276146|3
76|105088000273|IE FERNANDO VELEZ|ANTIOQUIA|A|MI|413|OFICIAL|0.6969|0.7039|0.6942|0.7423|0.6854|0.7075|B|ANTIOQUIA|BELLO|Urbano|6.337347481|-75.56773368|Estrato 2|0|Secundaria (Bachillerato) completa|Secundaria (Bachillerato) completa|N|ACADEMICO|0.7927711157425815|5
77|105088001873|IE CARLOS PEREZ MEJIA|ANTIOQUIA|A|MI|209|OFICIAL|0.7017|0.7090000000000001|0.6919|0.7334|0.7051|0.7087|B|ANTIOQUIA|BELLO|Urbano|6.337607858999999|-75.56498062|Estrato 2|0|Secundaria (Bachillerato) completa|Secundaria (Bachillerato) incompleta|N|ACADEMICO|0.5598784422613923|5
78|205284000162|I. E. R. LA BLANQUITA DEL MURRI|ANTIOQUIA|A|MI|19|OFICIAL|0.6184|0.6306|0.5751|0.6453|0.5731|0.614|D|ANTIOQUIA|FRONTINO|Rural|6.745007761|-76.36667327|Estrato 1|0|Primaria incompleta|Primaria incompleta|None|ACADEMICO|0.07494731499647758|0
79|105670000938|I. E. NORMAL SUPERIOR DE SAN ROQUE|ANTIOQUIA|A|MI|137|OFICIAL|0.6418|0.6393|0.6445|0.6925|0.6362|0.6531|C|ANTIOQUIA|SAN ROQUE|Urbano|6.485939559199999|-75.01905531|Estrato 2|0|Primaria incompleta|Primaria incompleta|N|TECNICO/ACADEMICO|0.4092359260077245|3
80|105670000938|I. E. NORMAL SUPERIOR DE SAN ROQUE|ANTIOQUIA|A|MI|139|OFICIAL|0.5059|0.541|0.5436|0.5922|0.5232|0.5439|D|ANTIOQUIA|SAN ROQUE|Urbano|6.485939559199999|-75.01905531|Estrato 2|0|Primaria incompleta|Primaria incompleta|N|TECNICO/ACADEMICO|0.3794193831492168|3
81|105360000474|INSTITUCION EDUCATIVA FELIPE DE RESTREPO|ANTIOQUIA|A|MI|220|OFICIAL|0.6967|0.7089|0.7095|0.7431|0.7116|0.7143|B|ANTIOQUIA|ITAGUI|Urbano|6.1622572661|-75.6210259|Estrato 3|0|Secundaria (Bachillerato) completa|Secundaria (Bachillerato) incompleta|N|TECNICO/ACADEMICO|0.5794066732056513|1
82|205670000819|I. E. R. PROVIDENCIA|ANTIOQUIA|A|MI|51|OFICIAL|0.6006|0.6212|0.5921|0.6628|0.5503|0.6139|D|ANTIOQUIA|SAN ROQUE|Rural|6.5183354079999996|-74.90695829|Estrato 2|0|Secundaria (Bachillerato) completa|Secundaria (Bachillerato) completa|N|ACADEMICO|0.18324317256005135|5
83|105360001055|INSTITUCION EDUCATIVA DIEGO ECHAVARRIA MISAS|ANTIOQUIA|A|MI|495|OFICIAL|0.7188|0.7199|0.7203|0.7664|0.7004|0.7289|A|ANTIOQUIA|ITAGUI|Urbano|6.1697921001|-75.60983243|Estrato 3|0|Secundaria (Bachillerato) completa|Secundaria (Bachillerato) completa|N|TECNICO/ACADEMICO|0.8663677670518206|1
84|305001004161|COL DE LA PRESENTACION - MEDELLIN|ANTIOQUIA|A|MI|186|NO OFICIAL|0.7825|0.7832|0.7902|0.8146|0.8599|0.7978|A+|ANTIOQUIA|MEDELLIN|Urbano|6.25168195900005|-75.604727247|Estrato 4|0|Educacion profesional completa|Educacion profesional completa|N|ACADEMICO|0.5549769320668849|0
85|305631000113|COLEGIO PADRE RAMON ARCILA R.|ANTIOQUIA|A|MI|94|NO OFICIAL|0.7633|0.7711|0.7665|0.7831|0.7941|0.7728|A+|ANTIOQUIA|SABANETA|Urbano|6.153147087200001|-75.61690341|Estrato 3|0|Secundaria (Bachillerato) completa|Secundaria (Bachillerato) completa|N|ACADEMICO|0.33877060620440735|2
86|305001022496|INSTITUCION EDUCATIVA PEQUENA MARIA|ANTIOQUIA|A|MI|90|NO OFICIAL|0.6704|0.6557|0.6643|0.71|0.6525|0.6733|B|ANTIOQUIA|MEDELLIN|Urbano|6.2868554620000605|-75.5408962019999|Estrato 1|0|Primaria incompleta|Primaria incompleta|None|ACADEMICO|0.30512917502692233|0
87|105543000325|I. E. PRESBITERO RODRIGO LOPERA GIL|ANTIOQUIA|A|MI|74|OFICIAL|0.6577|0.655|0.6759|0.7033|0.6433|0.6707|B|ANTIOQUIA|PEQUE|Urbano|7.021026963|-75.9097783|Estrato 1|0|Primaria incompleta|Primaria incompleta|N|TECNICO/ACADEMICO|0.2608807024901477|0
88|105543000325|I. E. PRESBITERO RODRIGO LOPERA GIL|ANTIOQUIA|A|MI|166|OFICIAL|0.4602|0.526|0.5282|0.5629|0.5193|0.5193|D|ANTIOQUIA|PEQUE|Urbano|7.021026963|-75.9097783|Estrato 1|0|Primaria incompleta|Primaria incompleta|N|TECNICO/ACADEMICO|0.4187155285823564|0
89|105658000124|I. E. FRANCISCO ABEL GALLEGO|ANTIOQUIA|A|MI|90|OFICIAL|0.6215|0.6389|0.6237|0.6699|0.636|0.6383|C|ANTIOQUIA|SAN JOSE DE LA MONTANA|Urbano|6.8489796426|-75.68644834|Estrato 2|1|Secundaria (Bachillerato) incompleta|Primaria incompleta|N|TECNICO/ACADEMICO|0.2972205634276253|3
90|105400000120|I. E. FELIX MARIA RESTREPO LONDONO|ANTIOQUIA|A|MI|267|OFICIAL|0.6714|0.6722|0.654|0.6958|0.6729999999999999|0.6733|B|ANTIOQUIA|LA UNION|Urbano|5.9741236116|-75.36025938|Estrato 2|0|Primaria completa|Primaria incompleta|N|ACADEMICO|0.6267125897663168|5
91|105001025763|INST EDUC DEBORA ARANGO PEREZ|ANTIOQUIA|A|MI|107|OFICIAL|0.6494|0.6591|0.6762|0.7021|0.6769|0.6721|B|ANTIOQUIA|MEDELLIN|Urbano|6.22376650605867|-75.6265937387907|Estrato 2|0|Secundaria (Bachillerato) completa|Secundaria (Bachillerato) completa|None|TECNICO/ACADEMICO|0.3476060062127747|3
92|105001025798|INST EDUC ANGELA RESTREPO MORENO|ANTIOQUIA|A|MI|180|OFICIAL|0.6878|0.6842|0.698|0.7477|0.6843|0.7029|B|ANTIOQUIA|MEDELLIN|Urbano|6.1770678502947804|-75.63734888405679|Estrato 2|0|Secundaria (Bachillerato) completa|Primaria incompleta|None|ACADEMICO|0.5086911751514362|5
93|205147000112|I. E. R. VILLA NELLY|ANTIOQUIA|A|MI|81|OFICIAL|0.5867|0.6145|0.6056|0.6539|0.6034|0.6143|D|ANTIOQUIA|CAREPA|Rural|7.759167|-76.69166700000001|Estrato 1|0|Secundaria (Bachillerato) incompleta|Primaria incompleta|N|ACADEMICO|0.26868907108117346|0
94|305001004811|COL DIVINO SALVADOR|ANTIOQUIA|A|MI|177|NO OFICIAL|0.8088|0.7967|0.8073|0.8288|0.8447|0.813|A+|ANTIOQUIA|MEDELLIN|Urbano|6.237230671000019|-75.548220737|Estrato 3|0|Tecnica o tecnologica completa|Educacion profesional completa|N|TECNICO|0.5434611631554479|1
95|205284000464|I. E. R. GABRIELA WHITE DE VELEZ|ANTIOQUIA|A|MI|58|OFICIAL|0.6318|0.6515|0.6416|0.6817|0.628|0.6498|C|ANTIOQUIA|FRONTINO|Rural|6.805902614|-76.2465026|Estrato 1|0|Primaria incompleta|Primaria completa|N|TECNICO/ACADEMICO|0.21009619085652148|0
96|305400000404|COLEGIO NUESTRA SENORA DE LAS MERCEDES|ANTIOQUIA|A|MI|50|NO OFICIAL|0.7819|0.7618|0.7687|0.7895|0.7794|0.7758|A+|ANTIOQUIA|LA UNION|Urbano|5.972824488400001|-75.36088009|Estrato 2|0|Educacion profesional completa|Secundaria (Bachillerato) completa|N|ACADEMICO|0.20274436445750482|5
97|205030000243|I. E. PASCUAL CORREA FLOREZ|ANTIOQUIA|A|MI|86|OFICIAL|0.6576|0.7001|0.6698|0.7178|0.6249|0.6816|B|ANTIOQUIA|AMAGA|Rural|6.055|-75.69555600000001|Estrato 1|0|Primaria completa|Primaria incompleta|N|ACADEMICO|0.29633600291760903|0
98|105360000253|INSTITUCION EDUCATIVA ESTEBAN OCHOA|ANTIOQUIA|A|MI|207|OFICIAL|0.6593|0.6794|0.6684|0.7177|0.6629|0.6798|B|ANTIOQUIA|ITAGUI|Urbano|6.1746705658000005|-75.63296389|Estrato 2|0|Secundaria (Bachillerato) completa|Secundaria (Bachillerato) completa|N|TECNICO/ACADEMICO|0.5450636249765443|3
99|305001016089|CENT EDUC AUTONOMO|ANTIOQUIA|A|MI|66|NO OFICIAL|0.768|0.7756|0.7846|0.7949|0.7711|0.78|A+|ANTIOQUIA|MEDELLIN|Urbano|6.300009271000019|-75.5698512009999|Estrato 3|0|Secundaria (Bachillerato) completa|Secundaria (Bachillerato) completa|N|ACADEMICO|0.256923226386224|2
100|105129000089|I. E. GABRIEL ECHAVARRIA|ANTIOQUIA|A|MI|87|OFICIAL|0.6618|0.6737|0.6659|0.7124|0.6599|0.677|B|ANTIOQUIA|CALDAS|Urbano|6.1100980721|-75.63698667|Estrato 2|0|Secundaria (Bachillerato) incompleta|Primaria incompleta|None|ACADEMICO|0.2980110095272343|5
101|105837006194|I.E. NORMAL SUPERIOR DE URABA|ANTIOQUIA|A|MI|272|OFICIAL|0.624|0.6416|0.6309|0.6896|0.6093|0.6437|C|ANTIOQUIA|TURBO|Urbano|8.100097669|-76.71650435|Estrato 1|0|Tecnica o tecnologica completa|Secundaria (Bachillerato) completa|N|TECNICO/ACADEMICO|0.6190735541462598|0
102|105308000083|I. E. COLOMBIA|ANTIOQUIA|A|MI|211|OFICIAL|0.7339|0.7243|0.7379|0.7561|0.7635|0.74|A|ANTIOQUIA|GIRARDOTA|Urbano|6.378633328099999|-75.44429670000001|Estrato 2|0|Secundaria (Bachillerato) completa|Secundaria (Bachillerato) completa|None|ACADEMICO|0.5757769120223825|5
103|105308000253|I. E.  EMILIANO GARCIA|ANTIOQUIA|A|MI|224|OFICIAL|0.6641|0.6784|0.6775|0.7147|0.6558|0.6815|B|ANTIOQUIA|GIRARDOTA|Urbano|6.376193285599999|-75.44855609|Estrato 2|0|Secundaria (Bachillerato) completa|Secundaria (Bachillerato) completa|None|TECNICO/ACADEMICO|0.5717054479003483|3
104|105387000077|I. E.  CARLOS ARTURO DUQUE RAMIREZ|ANTIOQUIA|A|MI|134|OFICIAL|0.6643|0.648|0.6295|0.6912|0.6417|0.657|C|ANTIOQUIA|PUERTO NARE|Urbano|6.185623561|-74.584391|Estrato 2|0|Primaria incompleta|Secundaria (Bachillerato) completa|N|TECNICO/ACADEMICO|0.4041710592451555|3
105|105282000403|I. E. ESCUELA NORMAL SUPERIOR MARIANO OSPINA RODRIGUEZ|ANTIOQUIA|A|MI|103|OFICIAL|0.7004|0.6995|0.6976|0.7286|0.6925|0.7055|B|ANTIOQUIA|FREDONIA|Urbano|5.9289140513|-75.67184531|Estrato 2|0|Primaria incompleta|Primaria incompleta|N|TECNICO/ACADEMICO|0.3462297834119995|3
106|105656000143|I. E.  ESCUELA NORMAL SUPERIOR GENOVEVA DIAZ|ANTIOQUIA|A|MI|206|OFICIAL|0.6694|0.6939|0.6871|0.7126|0.6577|0.6882|B|ANTIOQUIA|SAN JERONIMO|Urbano|6.441811769|-75.72710929|Estrato 2|0|Secundaria (Bachillerato) completa|Primaria incompleta|N|TECNICO/ACADEMICO|0.5468497371859047|3
107|205361000324|I. E. R. JOSE FELIX DE RESTREPO|ANTIOQUIA|A|MI|59|OFICIAL|0.5706|0.6011|0.5818|0.6327|0.581|0.5954|D|ANTIOQUIA|ITUANGO|Rural|7.2436110000000005|-75.777778|Estrato 1|0|Primaria incompleta|Primaria incompleta|N|ACADEMICO|0.20439831425659213|0
108|105038000019|I. E. MARIANO DE JESUS EUSSE|ANTIOQUIA|A|MI|200|OFICIAL|0.6157|0.6201|0.5971|0.6406|0.5834|0.6157|D|ANTIOQUIA|ANGOSTURA|Urbano|6.8845252612|-75.33481983|Estrato 1|0|Primaria incompleta|Primaria incompleta|N|TECNICO/ACADEMICO|0.508662646351556|0
109|105664000187|I. E. PIO XII|ANTIOQUIA|A|MI|282|OFICIAL|0.6711|0.6716|0.6486|0.7068|0.6425|0.6721|B|ANTIOQUIA|SAN PEDRO|Urbano|6.455110423|-75.55639214|Estrato 2|0|Secundaria (Bachillerato) completa|Primaria incompleta|N|TECNICO/ACADEMICO|0.6445279427885808|3
110|205079000346|I. E. EL TABLAZO|ANTIOQUIA|A|MI|86|OFICIAL|0.6571|0.6665|0.6504|0.7115|0.5852|0.6647|C|ANTIOQUIA|BARBOSA|Rural|6.4183330000000005|-75.410278|Estrato 2|0|Secundaria (Bachillerato) incompleta|Primaria incompleta|N|ACADEMICO|0.2926499770489811|5
111|105154000301|I. E. LICEO CAUCASIA|ANTIOQUIA|A|MI|829|OFICIAL|0.7332|0.7283|0.7038|0.7521|0.6956|0.7268|A|ANTIOQUIA|CAUCASIA|Urbano|7.983333|-75.199722|Estrato 1|0|Secundaria (Bachillerato) completa|Secundaria (Bachillerato) completa|N|TECNICO/ACADEMICO|1.0233052052381566|0
112|205380000165|I. E. JOSE ANTONIO GALAN|ANTIOQUIA|A|MI|358|OFICIAL|0.6691|0.6799|0.6624|0.7152|0.6539|0.6795|B|ANTIOQUIA|LA ESTRELLA|Rural|6.1189956688|-75.63750313|Estrato 2|0|Secundaria (Bachillerato) completa|Secundaria (Bachillerato) completa|N|TECNICO/ACADEMICO|0.7288768864197623|3
113|205656000423|I. E. R. BENIGNO MENA GONZALEZ|ANTIOQUIA|A|MI|65|OFICIAL|0.5919|0.6082|0.597|0.6533|0.5609|0.6086|D|ANTIOQUIA|SAN JERONIMO|Rural|6.391399538|-75.67650721|Estrato 2|0|Primaria incompleta|Primaria incompleta|N|ACADEMICO|0.22386364189836908|5
114|205649000027|I.E.R.. PALMICHAL|ANTIOQUIA|A|MI|59|OFICIAL|0.6128|0.6304|0.6243|0.6583|0.6479|0.6327|C|ANTIOQUIA|SAN CARLOS|Rural|6.1841669999999995|-75.046389|Estrato 1|0|Primaria completa|Primaria incompleta|N|ACADEMICO|0.21038987428926298|0
115|105088002641|IE LA NAVARRA|ANTIOQUIA|A|MI|102|OFICIAL|0.7072|0.7127|0.7104|0.7415|0.6957|0.7162|B|ANTIOQUIA|BELLO|Urbano|6.3466667298|-75.53157947|Estrato 3|0|Tecnica o tecnologica completa|Secundaria (Bachillerato) completa|N|ACADEMICO|0.3463639868429269|2
116|105034001207|I. E. MARIA AUXILIADORA|ANTIOQUIA|A|MI|191|OFICIAL|0.7343|0.7509|0.7425|0.7622|0.7181|0.7452|A|ANTIOQUIA|ANDES|Urbano|5.6579715948|-75.87704437|Estrato 2|0|Secundaria (Bachillerato) completa|Secundaria (Bachillerato) completa|N|TECNICO/ACADEMICO|0.5440673504890319|3
117|105034000740|I. E. JUAN DE DIOS URIBE|ANTIOQUIA|A|MI|99|OFICIAL|0.6519|0.6432|0.6277|0.6733|0.6021|0.6454|C|ANTIOQUIA|ANDES|Urbano|5.653517073|-75.87552459999999|Estrato 1|0|Primaria incompleta|Primaria incompleta|N|TECNICO/ACADEMICO|0.3214440104457291|0
118|105034000740|I. E. JUAN DE DIOS URIBE|ANTIOQUIA|A|MI|87|OFICIAL|0.5028|0.5479999999999999|0.5326|0.602|0.5333|0.5453|D|ANTIOQUIA|ANDES|Urbano|5.653517073|-75.87552459999999|Estrato 1|0|Primaria incompleta|Primaria incompleta|N|TECNICO/ACADEMICO|0.26902568192794263|0
119|205034000299|I. E. SAN JOSE|ANTIOQUIA|A|MI|22|OFICIAL|0.6102|0.6262|0.6124|0.6795|0.6239|0.6315|C|ANTIOQUIA|ANDES|Rural|5.7353807|-75.87045959|Estrato 2|0|Secundaria (Bachillerato) completa|Primaria incompleta|N|ACADEMICO|0.08715850604133984|5
120|105001001121|INST EDUC JOSE ROBERTO VASQUEZ|ANTIOQUIA|A|MI|485|OFICIAL|0.6671|0.6663|0.6584|0.7164|0.6691|0.6764|B|ANTIOQUIA|MEDELLIN|Urbano|6.26896966437999|-75.55019913655559|Estrato 2|0|Secundaria (Bachillerato) completa|Secundaria (Bachillerato) completa|N|TECNICO/ACADEMICO|0.8274688845527577|3
121|105001001023|INST EDUC ANTONIO RICAURTE|ANTIOQUIA|A|MI|191|OFICIAL|0.6742|0.6743|0.6719|0.7208|0.6914|0.6858|B|ANTIOQUIA|MEDELLIN|Urbano|6.21126592000007|-75.6034440669999|Estrato 2|0|Secundaria (Bachillerato) completa|Secundaria (Bachillerato) completa|N|ACADEMICO|0.521344738832713|5
122|105120000345|I. E. MONSENOR GERARDO PATINO|ANTIOQUIA|A|MI|186|OFICIAL|0.6549|0.6377|0.6771|0.7090000000000001|0.6204|0.6659|C|ANTIOQUIA|CACERES|Urbano|7.581870843099999|-75.34744312|Estrato 1|0|Primaria incompleta|Primaria incompleta|N|ACADEMICO|0.5053443202926586|0
123|305001003599|COLEGIO SAN JOSE DE LA SALLE|ANTIOQUIA|A|MI|285|NO OFICIAL|0.8174|0.8068|0.8155|0.8136|0.8743|0.818|A+|ANTIOQUIA|MEDELLIN|Urbano|6.245005773000059|-75.550074961|Estrato 5|0|Educacion profesional completa|Educacion profesional completa|N|ACADEMICO|0.7181760373760436|0
124|105088000877|IE MARCO FIDEL SUAREZ|ANTIOQUIA|A|MI|459|OFICIAL|0.6962|0.6935|0.6967|0.7433|0.7094|0.7076|B|ANTIOQUIA|BELLO|Urbano|6.3365700013|-75.55990138|Estrato 2|0|Secundaria (Bachillerato) completa|Secundaria (Bachillerato) completa|N|ACADEMICO|0.8283093276520763|5
125|105088001415|IE ABRAHAM REYES|ANTIOQUIA|A|MI|168|OFICIAL|0.7011|0.7076|0.705|0.747|0.6627|0.7111|B|ANTIOQUIA|BELLO|Urbano|6.3468276488|-75.55418578|Estrato 1|0|Secundaria (Bachillerato) completa|Primaria incompleta|N|TECNICO|0.48963239017009563|0
126|105088001415|IE ABRAHAM REYES|ANTIOQUIA|A|MI|69|OFICIAL|0.5072|0.5233|0.5327|0.5805|0.5343|0.5358|D|ANTIOQUIA|BELLO|Urbano|6.3468276488|-75.55418578|Estrato 1|0|Secundaria (Bachillerato) completa|Primaria incompleta|N|TECNICO|0.22180694933334505|0
127|105088001709|IE NUEVA GENERACION|ANTIOQUIA|A|MI|205|OFICIAL|0.8288|0.8059|0.8075|0.8209|0.7805|0.8131|A+|ANTIOQUIA|BELLO|Urbano|6.343836017999999|-75.54635997|Estrato 2|0|Secundaria (Bachillerato) completa|Secundaria (Bachillerato) completa|N|TECNICO|0.5951374512351613|3
128|105001018759|INST EDUC FE Y ALEGRIA EL LIMONAR|ANTIOQUIA|A|MI|131|OFICIAL|0.6581|0.6491|0.6723|0.7189|0.6621|0.6736|B|ANTIOQUIA|MEDELLIN|Rural|6.174378|-75.64224899999999|Estrato 2|0|Secundaria (Bachillerato) completa|Secundaria (Bachillerato) completa|N|ACADEMICO|0.4027709108969379|5
129|205001009797|INST EDUC MANUEL J. BETANCUR|ANTIOQUIA|A|MI|269|OFICIAL|0.7542|0.7382|0.7297|0.7668|0.7333|0.7461|A|ANTIOQUIA|MEDELLIN|Rural|6.185199|-75.655146|Estrato 2|0|Secundaria (Bachillerato) completa|Secundaria (Bachillerato) completa|N|ACADEMICO|0.6631416683249038|5
130|205490001213|I. E. R. EL TOTUMO|ANTIOQUIA|A|MI|124|OFICIAL|0.5918|0.6385|0.583|0.6278|0.569|0.6071|D|ANTIOQUIA|NECOCLI|Rural|8.332487217999999|-76.74331306|Estrato 1|0|Primaria incompleta|Primaria incompleta|N|ACADEMICO|0.3683474400812109|0
131|205686000223|I.E.R. MONSENOR MIGUEL ANGEL BUILES|ANTIOQUIA|A|MI|45|OFICIAL|0.6406|0.6423|0.6184|0.6674|0.6305|0.6413|C|ANTIOQUIA|SANTA ROSA DE OSOS|Rural|6.778692831|-75.56092406|Estrato 2|1|Primaria completa|Primaria completa|N|ACADEMICO|0.16792096010928836|5
132|205887001350|I. E. EL CEDRO|ANTIOQUIA|A|MI|23|OFICIAL|0.5379|0.5768|0.5901|0.6189|0.5287|0.5769|D|ANTIOQUIA|YARUMAL|Rural|7.1908902370000005|-75.35795397|Estrato 1|1|Primaria incompleta|Primaria completa|N|ACADEMICO|0.08705469562679453|0
133|205051000758|I. E. R. UVEROS|ANTIOQUIA|A|MI|136|OFICIAL|0.5351|0.5549|0.5372|0.5979|0.5502|0.5558|D|ANTIOQUIA|SAN JUAN DE URABA|Rural|8.746667|-76.580556|Estrato 1|0|Primaria incompleta|Primaria incompleta|N|ACADEMICO|0.37737967980089404|0
134|205051001401|I. E. R. EL FILO DE DAMAQUIEL|ANTIOQUIA|A|MI|81|OFICIAL|0.5251|0.5489999999999999|0.5465|0.6052|0.5583|0.5566|D|ANTIOQUIA|SAN JUAN DE URABA|Rural|8.769974000000001|-76.526983|Estrato 1|1|Secundaria (Bachillerato) incompleta|Primaria incompleta|None|ACADEMICO|0.2566836767837165|0
135|105001019011|I.E. STELLA VELEZ LONDONO|ANTIOQUIA|A|MI|145|OFICIAL|0.7008|0.698|0.6945|0.7316|0.6659999999999999|0.7031|B|ANTIOQUIA|MEDELLIN|Urbano|6.26843144200006|-75.61630399099991|Estrato 1|0|Primaria incompleta|Primaria incompleta|N|TECNICO/ACADEMICO|0.44148265337935044|0
136|105001001791|INST EDUC MONSENOR GERARDO VALENCIA CANO|ANTIOQUIA|A|MI|127|OFICIAL|0.7512|0.7505|0.7475|0.7763|0.7444|0.7555|A|ANTIOQUIA|MEDELLIN|Urbano|6.26904671700004|-75.58775289499991|Estrato 3|0|Secundaria (Bachillerato) completa|Secundaria (Bachillerato) completa|N|ACADEMICO|0.4179551957137948|2
137|105001009652|INST EDUC SAN LORENZO DE ABURRA|ANTIOQUIA|A|MI|259|OFICIAL|0.6767|0.6665|0.6555|0.71|0.6694|0.6766|B|ANTIOQUIA|MEDELLIN|Urbano|6.272000717596001|-75.5491700363483|Estrato 2|0|Secundaria (Bachillerato) completa|Secundaria (Bachillerato) completa|N|TECNICO/ACADEMICO|0.61801432040709|3
138|105001002976|INST EDUC LA PIEDAD|ANTIOQUIA|A|MI|183|OFICIAL|0.6813|0.6806|0.6273|0.6933|0.6598|0.6698|C|ANTIOQUIA|MEDELLIN|Urbano|6.2693753590000405|-75.596902901|Estrato 2|0|Secundaria (Bachillerato) completa|Secundaria (Bachillerato) completa|N|ACADEMICO|0.5016822698423646|5
139|105001013072|INST EDUC MAESTRO PEDRO NEL GOMEZ|ANTIOQUIA|A|MI|176|OFICIAL|0.7159|0.6995|0.7062|0.7393|0.7095|0.7148|B|ANTIOQUIA|MEDELLIN|Urbano|6.311350004000079|-75.56781502300001|Estrato 3|0|Tecnica o tecnologica completa|Secundaria (Bachillerato) incompleta|N|ACADEMICO|0.5058196084320389|2
140|105001000175|INST EDUC GABRIEL RESTREPO MORENO|ANTIOQUIA|A|MI|138|OFICIAL|0.6409|0.6467|0.6343|0.6981|0.6391|0.6538|C|ANTIOQUIA|MEDELLIN|Urbano|6.27681856700002|-75.54846170100001|Estrato 2|0|Secundaria (Bachillerato) completa|Secundaria (Bachillerato) completa|N|TECNICO/ACADEMICO|0.41151585025082277|3
141|105001010855|INST EDUC  ANA DE CASTRILLON|ANTIOQUIA|A|MI|178|OFICIAL|0.6928|0.6782|0.6867|0.7205|0.682|0.6936|B|ANTIOQUIA|MEDELLIN|Urbano|6.237848145000041|-75.564248703|Estrato 3|0|Secundaria (Bachillerato) completa|Secundaria (Bachillerato) completa|N|ACADEMICO|0.5017038219104285|2
142|105495000024|I. E. NECHI|ANTIOQUIA|A|MI|296|OFICIAL|0.5901|0.6234|0.6141|0.6595|0.5875|0.6191|D|ANTIOQUIA|NECHI|Urbano|8.092637614|-74.77339635|Estrato 1|0|Secundaria (Bachillerato) completa|Primaria incompleta|N|ACADEMICO|0.6348918918549296|0
143|105031001516|I. E. EDUARDO FERNANDEZ BOTERO|ANTIOQUIA|A|MI|201|OFICIAL|0.7429|0.7085|0.701|0.7397|0.7159|0.7224|A|ANTIOQUIA|AMALFI|Urbano|6.907041969|-75.07358005|Estrato 1|0|Primaria incompleta|Primaria incompleta|N|TECNICO/ACADEMICO|0.5523123684590583|0
144|105031001516|I. E. EDUARDO FERNANDEZ BOTERO|ANTIOQUIA|A|MI|99|OFICIAL|0.5896|0.6062|0.5853|0.6399|0.5727|0.6028|D|ANTIOQUIA|AMALFI|Urbano|6.907041969|-75.07358005|Estrato 1|0|Primaria incompleta|Primaria incompleta|N|TECNICO/ACADEMICO|0.3110894806151374|0
145|105376000105|I. E. MARIA JOSEFA MARULANDA|ANTIOQUIA|A|MI|242|OFICIAL|0.7889|0.7679|0.7399|0.7664|0.7522|0.7647|A|ANTIOQUIA|LA CEJA|Urbano|6.0262080092999994|-75.43391808|Estrato 3|0|Secundaria (Bachillerato) completa|Secundaria (Bachillerato) completa|N|ACADEMICO|0.6340312556787208|2
146|105045001683|I. E. HERACLIO MENA PADILLA|ANTIOQUIA|A|MI|248|OFICIAL|0.6266|0.6237|0.6349|0.6854|0.6271|0.6415|C|ANTIOQUIA|APARTADO|Urbano|7.8776552084|-76.62840098|Estrato 2|0|Secundaria (Bachillerato) completa|Primaria incompleta|N|ACADEMICO|0.5878202349347743|5
147|205001011031|INST EDUC SANTA ELENA|ANTIOQUIA|A|MI|175|OFICIAL|0.7801|0.7616|0.7596|0.7731|0.7372|0.7662|A|ANTIOQUIA|MEDELLIN|Rural|6.206071|-75.49192|Estrato 2|0|Secundaria (Bachillerato) completa|Primaria incompleta|N|TECNICO/ACADEMICO|0.5225979107137056|3
148|105856000296|I. E. RAFAEL URIBE URIBE|ANTIOQUIA|A|MI|136|OFICIAL|0.6996|0.6685|0.6765|0.7023|0.6549|0.6843|B|ANTIOQUIA|VALPARAISO|Urbano|5.6161892689999995|-75.62289962|Estrato 2|0|Primaria incompleta|Secundaria (Bachillerato) completa|N|TECNICO/ACADEMICO|0.4167134632805249|3
149|105856000296|I. E. RAFAEL URIBE URIBE|ANTIOQUIA|A|MI|48|OFICIAL|0.4931|0.5495|0.5118|0.5759|0.5326|0.5326|D|ANTIOQUIA|VALPARAISO|Urbano|5.6161892689999995|-75.62289962|Estrato 2|0|Primaria incompleta|Secundaria (Bachillerato) completa|N|TECNICO/ACADEMICO|0.16296372033039297|3
150|105001006718|INST EDUC ASIA IGNACIANA|ANTIOQUIA|A|MI|229|OFICIAL|0.7137|0.7149|0.7449|0.7597|0.7240000000000001|0.7326|A|ANTIOQUIA|MEDELLIN|Urbano|6.3062437540000404|-75.554561436|Estrato 2|0|Secundaria (Bachillerato) completa|Secundaria (Bachillerato) completa|N|TECNICO/ACADEMICO|0.6008068872061564|3
151|105364000401|I. E. SAN ANTONIO|ANTIOQUIA|A|MI|271|OFICIAL|0.7321|0.7429|0.7306|0.7539|0.6849|0.7357|A|ANTIOQUIA|JARDIN|Urbano|5.596651782|-75.81378428|Estrato 2|0|Secundaria (Bachillerato) completa|Primaria incompleta|N|TECNICO/ACADEMICO|0.6609004269901122|3
152|205113000407|I. E. R. ADOLFO MORENO USUGA|ANTIOQUIA|A|MI|41|OFICIAL|0.6067|0.6412|0.6323|0.6624|0.5548|0.6294|C|ANTIOQUIA|BURITICA|Rural|6.8061110000000005|-75.914167|Estrato 1|1|Primaria incompleta|Primaria incompleta|N|TECNICO|0.15334987330031968|0
153|105001005339|INST EDUC MONSE?OR FRANCISCO CRISTOBAL TORO|ANTIOQUIA|A|MI|408|OFICIAL|0.653|0.6477|0.6547|0.7066|0.6621|0.6652|C|ANTIOQUIA|MEDELLIN|Urbano|6.28256338500006|-75.56054796800001|Estrato 2|0|Secundaria (Bachillerato) completa|Secundaria (Bachillerato) completa|N|TECNICO/ACADEMICO|0.7645463844850087|3
154|105001017132|INST EDUC FE Y ALEGRIA SAN JOSE|ANTIOQUIA|A|MI|201|OFICIAL|0.6353|0.649|0.6675|0.7094|0.6537|0.6644|C|ANTIOQUIA|MEDELLIN|Urbano|6.291269344000059|-75.58998531899991|Estrato 2|0|Secundaria (Bachillerato) completa|Primaria incompleta|None|ACADEMICO|0.5294221269511061|5
155|105001019453|INST EDUC VILLA DEL SOCORRO|ANTIOQUIA|A|MI|310|OFICIAL|0.6795|0.6707|0.6405|0.6986|0.6568|0.6711|B|ANTIOQUIA|MEDELLIN|Urbano|6.2953627535497905|-75.5540727862882|Estrato 2|0|Secundaria (Bachillerato) completa|Primaria incompleta|N|TECNICO/ACADEMICO|0.6759364319388139|3
156|105001000841|INST EDUC JESUS MARIA - EL ROSAL|ANTIOQUIA|A|F|191|OFICIAL|0.7798|0.779|0.7731|0.7976|0.7666|0.7811|A+|ANTIOQUIA|MEDELLIN|Urbano|6.291317415000041|-75.574833342|Estrato 3|0|Secundaria (Bachillerato) completa|Secundaria (Bachillerato) completa|N|TECNICO/ACADEMICO|0.5578003767257633|1
157|205318000183|I. E. R. PIEDRAS BLANCAS|ANTIOQUIA|A|MI|39|OFICIAL|0.6954|0.7074|0.675|0.7212|0.6726|0.6976|B|ANTIOQUIA|GUARNE|Rural|6.2763735270000005|-75.47028477|Estrato 2|1|Primaria completa|Primaria incompleta|None|ACADEMICO|0.15436791970168934|5
158|105113000071|I. E. SANTA GEMA|ANTIOQUIA|A|MI|117|OFICIAL|0.6524|0.6642|0.6693|0.6919|0.6492|0.6679|C|ANTIOQUIA|BURITICA|Urbano|6.71925|-75.9061150137|Estrato 1|0|Primaria incompleta|Primaria incompleta|N|ACADEMICO|0.3700000835579358|0
159|105113000071|I. E. SANTA GEMA|ANTIOQUIA|A|MI|88|OFICIAL|0.4677|0.515|0.5206|0.5697|0.5281|0.519|D|ANTIOQUIA|BURITICA|Urbano|6.71925|-75.9061150137|Estrato 1|0|Primaria incompleta|Primaria incompleta|N|ACADEMICO|0.26559126465258187|0
160|105001013340|INST EDUC INEM JOSE FELIX DE RESTREPO|ANTIOQUIA|A|MI|2282|OFICIAL|0.7444|0.7345|0.7394|0.7724|0.7314|0.7464|A|ANTIOQUIA|MEDELLIN|Urbano|6.20685576200003|-75.5776666679999|Estrato 2|0|Secundaria (Bachillerato) completa|Secundaria (Bachillerato) completa|N|TECNICO/ACADEMICO|1.2540438080658838|3
161|105001017965|INST EDUC MANUEL JOSE GOMEZ S|ANTIOQUIA|A|MI|193|OFICIAL|0.6945|0.6823|0.6991|0.7385|0.6932|0.7028|B|ANTIOQUIA|MEDELLIN|Urbano|6.29406515200003|-75.573582944|Estrato 3|0|Secundaria (Bachillerato) completa|Secundaria (Bachillerato) completa|N|ACADEMICO|0.5312470782576871|2
162|205031000191|I. E. R. PORTACHUELO|ANTIOQUIA|A|MI|47|OFICIAL|0.6211|0.6336|0.625|0.6502|0.5944|0.6295|C|ANTIOQUIA|AMALFI|Rural|6.799167|-74.925556|Estrato 1|1|Primaria incompleta|Primaria incompleta|None|ACADEMICO|0.17283593424716168|0
163|205034000345|I. E. FELIPE HENAO JARAMILLO|ANTIOQUIA|A|MI|54|OFICIAL|0.6639|0.6443|0.6916|0.7108|0.6227|0.6734|B|ANTIOQUIA|ANDES|Rural|5.6821283629999995|-75.83492234|Estrato 1|0|Primaria incompleta|Primaria incompleta|N|ACADEMICO|0.2012839366490033|0
164|205093000260|I E FRANCISCO CESAR|ANTIOQUIA|A|MI|56|OFICIAL|0.4875|0.5285|0.547|0.5929|0.5119|0.5369|D|ANTIOQUIA|BETULIA|Rural|6.220089599|-75.95019324|Estrato 1|0|Primaria incompleta|Primaria incompleta|N|ACADEMICO|0.18661021817002155|0
165|205615000516|I. E. ANTONIO DONADO CAMACHO|ANTIOQUIA|A|MI|79|OFICIAL|0.7295|0.7492|0.73|0.7566|0.7418|0.7414|A|ANTIOQUIA|RIONEGRO|Rural|6.143732716000001|-75.4484857|Estrato 3|0|Secundaria (Bachillerato) completa|Primaria incompleta|N|TECNICO/ACADEMICO|0.2893333930815799|1
166|205756000781|I. E. R. SAN MIGUEL|ANTIOQUIA|A|MI|41|OFICIAL|0.5993|0.611|0.5837|0.6442|0.6649|0.6138|D|ANTIOQUIA|SONSON|Rural|5.73736835|-74.72744589|Estrato 1|0|Primaria incompleta|Secundaria (Bachillerato) incompleta|N|TECNICO/ACADEMICO|0.15151878254738524|0
167|205837001821|I.E. ALTO DE MULATOS|ANTIOQUIA|A|MI|21|OFICIAL|0.6546|0.6318|0.6346|0.6970000000000001|0.5772|0.6486|C|ANTIOQUIA|TURBO|Rural|8.136389|-76.550556|Estrato 1|1|Primaria incompleta|Primaria completa|N|TECNICO/ACADEMICO|0.08453989805573055|0
168|105440000408|I. E. R. TECNICO DE MARINILLA|ANTIOQUIA|A|MI|85|OFICIAL|0.7085|0.723|0.6945|0.7325|0.7174|0.7149|B|ANTIOQUIA|MARINILLA|Rural|6.174167|-75.322778|Estrato 2|0|Primaria completa|Primaria incompleta|N|TECNICO|0.30083173108240724|3
169|105440000467|I. E. TECNICO INDUSTRIAL SIMONA DUQUE|ANTIOQUIA|A|MI|308|OFICIAL|0.7613|0.7519|0.7277|0.7616|0.7314|0.7491|A|ANTIOQUIA|MARINILLA|Urbano|6.173309493500001|-75.33695273|Estrato 3|0|Secundaria (Bachillerato) completa|Secundaria (Bachillerato) completa|N|TECNICO|0.7127359461891347|1
170|305001005150|ESC NORMAL SUPERIOR ANTIOQUE?A|ANTIOQUIA|A|F|207|NO OFICIAL|0.7622|0.7642|0.7675|0.7954|0.7964|0.7742|A+|ANTIOQUIA|MEDELLIN|Urbano|6.24275475800005|-75.55798801600001|Estrato 3|0|Educacion profesional completa|Secundaria (Bachillerato) completa|N|ACADEMICO|0.5829848359216248|2
171|305045000988|CORPORACION COLEGIO AMERICANO DE APARTADO|ANTIOQUIA|A|MI|50|NO OFICIAL|0.7198|0.7095|0.7332|0.7554|0.7483|0.7309|A|ANTIOQUIA|APARTADO|Urbano|7.8792910135000005|-76.63112601|Estrato 3|0|Educacion profesional completa|Secundaria (Bachillerato) completa|N|ACADEMICO|0.19647866532270158|2
172|205042000508|I. E. R. OGOSCO|ANTIOQUIA|A|MI|152|OFICIAL|0.5088|0.5513|0.5472|0.6065|0.5177|0.5507|D|ANTIOQUIA|SANTAFE DE ANTIOQUIA|Rural|6.5622340779999995|-75.94948882|Estrato 1|1|Primaria incompleta|Primaria incompleta|None|NO APLICA|0.4054322172208926|4
173|305088000272|COL MANO AMIGA|ANTIOQUIA|A|MI|97|NO OFICIAL|0.7377|0.7592|0.7501|0.765|0.7561|0.7532|A|ANTIOQUIA|BELLO|Urbano|6.3439724639|-75.56906907|Estrato 2|0|Tecnica o tecnologica completa|Secundaria (Bachillerato) completa|N|ACADEMICO|0.3423040049917111|5
174|305360001704|INSTITUCION MARIA REINA|ANTIOQUIA|A|MI|65|NO OFICIAL|0.7282|0.7334|0.7358|0.7472|0.7682|0.7386|A|ANTIOQUIA|ITAGUI|Urbano|6.182767064299999|-75.59634555|Estrato 3|0|Secundaria (Bachillerato) completa|Secundaria (Bachillerato) incompleta|None|ACADEMICO|0.24649959153672965|2
175|305001000115|COLEGIO SAN JOSE DE LAS VEGAS|ANTIOQUIA|A|MI|178|NO OFICIAL|0.8646|0.8545|0.8699|0.8565|0.9113|0.8652|A+|ANTIOQUIA|RETIRO|Rural|6.118704502000001|-75.53435345|Estrato 6|0|Educacion profesional completa|Educacion profesional completa|N|ACADEMICO|0.5645144326445433|0
176|305615001312|COLEGIO MONSENOR ALFONSO URIBE JARAMILLO|ANTIOQUIA|A|MI|133|NO OFICIAL|0.8663|0.8543|0.8495|0.8455|0.8843|0.8563|A+|ANTIOQUIA|RIONEGRO|Urbano|6.1501917206|-75.36702405|Estrato 3|0|Tecnica o tecnologica completa|Educacion profesional completa|N|TECNICO|0.4621293754553133|1
177|205138000649|I. E. R. BERNARDO SIERRA|ANTIOQUIA|A|MI|47|OFICIAL|0.6609999999999999|0.67|0.6729999999999999|0.7071|0.5971|0.6716|B|ANTIOQUIA|CANASGORDAS|Rural|6.820046125|-76.08242385|Estrato 1|0|Primaria completa|Primaria incompleta|N|ACADEMICO|0.17840503078529846|0
178|105679000485|I. E. JESUS MARIA ROJAS  PAGOLA|ANTIOQUIA|A|MI|171|OFICIAL|0.6938|0.6799|0.6883|0.7279|0.6582|0.6945|B|ANTIOQUIA|SANTA BARBARA|Urbano|5.874303457000001|-75.56651613|Estrato 2|0|Secundaria (Bachillerato) completa|Primaria incompleta|N|ACADEMICO|0.489334040861932|5
179|105615000228|I. E. JOSE MARIA CORDOBA|ANTIOQUIA|A|MI|190|OFICIAL|0.7136|0.7134|0.6934|0.7297|0.7066|0.7121|B|ANTIOQUIA|RIONEGRO|Urbano|6.1426482003|-75.37198017|Estrato 2|0|Secundaria (Bachillerato) completa|Secundaria (Bachillerato) completa|N|TECNICO/ACADEMICO|0.5296840497360447|3
180|105001005291|INST EDUC CAMPO VALDES|ANTIOQUIA|A|MI|123|OFICIAL|0.7485|0.7276|0.7416|0.7757|0.7138|0.7457|A|ANTIOQUIA|MEDELLIN|Urbano|6.27547955700004|-75.555751218|Estrato 3|0|Secundaria (Bachillerato) completa|Secundaria (Bachillerato) completa|N|ACADEMICO|0.4057505964094713|2
181|105172000572|I. E. CHIGORODO|ANTIOQUIA|A|MI|128|OFICIAL|0.6197|0.6265|0.603|0.6679999999999999|0.6302|0.6294|C|ANTIOQUIA|CHIGORODO|Urbano|7.666389|-76.68|Estrato 2|0|Secundaria (Bachillerato) completa|Primaria incompleta|N|ACADEMICO|0.3832859564747132|5
182|205856000177|I. E. RAFAEL URIBE URIBE|ANTIOQUIA|A|MI|36|OFICIAL|0.6422|0.6653|0.6209|0.6887|0.5938|0.6496|C|ANTIOQUIA|LA PINTADA|Urbano|5.740562539500001|-75.60695138|Estrato 1|0|Primaria incompleta|Primaria incompleta|None|ACADEMICO|0.13871617823203386|0
183|205001006526|INST EDUC MARINA ORTH|ANTIOQUIA|A|MI|53|OFICIAL|0.6044|0.6214|0.6177|0.6589|0.6301|0.626|C|ANTIOQUIA|MEDELLIN|Rural|6.232226|-75.643899|Estrato 2|0|Primaria incompleta|Primaria incompleta|None|ACADEMICO|0.19115002527603492|5
184|205756001044|I. E. R. LA DANTA|ANTIOQUIA|A|MI|107|OFICIAL|0.6811|0.6635|0.6488|0.6962|0.6356|0.6696|C|ANTIOQUIA|SONSON|Rural|5.845582178|-74.82188825|Estrato 1|0|Primaria incompleta|Primaria incompleta|N|ACADEMICO|0.3469618935231527|0
185|205387000128|INSTITUCION EDUCATIVA RURAL JORGE ENRIQUE VILLEGAS|ANTIOQUIA|A|MI|65|OFICIAL|0.6181|0.6447|0.6326|0.6801|0.6468|0.6441|C|ANTIOQUIA|PUERTO NARE|Rural|6.212599212000001|-74.58105119|Estrato 2|0|Secundaria (Bachillerato) completa|Primaria incompleta|N|ACADEMICO|0.23004499737653678|5
186|205387000322|I. E. R. LA SIERRA|ANTIOQUIA|A|MI|118|OFICIAL|0.6044|0.6233|0.6007|0.6662|0.5768|0.62|C|ANTIOQUIA|PUERTO NARE|Rural|6.1874873349|-74.58129813|Estrato 2|0|Secundaria (Bachillerato) completa|Primaria incompleta|N|TECNICO/ACADEMICO|0.3590283876445991|3
187|105789000235|I. E. SAN ANTONIO DE PADUA|ANTIOQUIA|A|MI|257|OFICIAL|0.6466|0.6605|0.6491|0.6871|0.6374|0.659|C|ANTIOQUIA|TAMESIS|Urbano|5.665|-75.714167|Estrato 2|0|Secundaria (Bachillerato) completa|Primaria incompleta|N|TECNICO|0.6074102100398678|3
188|205347000095|I. E. R. ALTO DEL CORRAL|ANTIOQUIA|A|MI|17|OFICIAL|0.617|0.6407|0.6618|0.6842|0.6075|0.6476|C|ANTIOQUIA|HELICONIA|Rural|6.209107394|-75.77527483|Estrato 2|0|Primaria incompleta|Primaria incompleta|N|ACADEMICO|0.06922632636625314|5
189|205649000426|I. E.  RURAL PUERTO GARZA|ANTIOQUIA|A|MI|25|OFICIAL|0.6353|0.6258|0.6488|0.6865|0.5749|0.6434|C|ANTIOQUIA|SAN CARLOS|Rural|6.207111317000001|-74.7552762|Estrato 1|1|Secundaria (Bachillerato) completa|Primaria incompleta|N|ACADEMICO|0.09904486316400235|0
190|105282000390|I. E. EFE GOMEZ|ANTIOQUIA|A|MI|202|OFICIAL|0.6808|0.6457|0.6569|0.7025|0.6545|0.6702|B|ANTIOQUIA|FREDONIA|Urbano|5.923254579400001|-75.67019037|Estrato 2|0|Secundaria (Bachillerato) completa|Secundaria (Bachillerato) completa|N|ACADEMICO|0.5333093383733116|5
191|105282000390|I. E. EFE GOMEZ|ANTIOQUIA|A|MI|38|OFICIAL|0.5297|0.5427|0.5431|0.5957|0.5429|0.552|D|ANTIOQUIA|FREDONIA|Urbano|5.923254579400001|-75.67019037|Estrato 2|0|Secundaria (Bachillerato) completa|Secundaria (Bachillerato) completa|N|ACADEMICO|0.13486720299363045|5
192|205310000354|I. E. R. EL SALTO|ANTIOQUIA|A|MI|93|OFICIAL|0.6616|0.6409999999999999|0.624|0.6818|0.6366|0.6509|C|ANTIOQUIA|GOMEZ PLATA|Rural|6.784101822999999|-75.23852511|Estrato 2|0|Secundaria (Bachillerato) completa|Primaria incompleta|N|ACADEMICO|0.3077519281343897|5
193|105380000063|I. E. BERNARDO ARANGO MACIAS|ANTIOQUIA|A|MI|419|OFICIAL|0.6814|0.6752|0.6983|0.7433|0.6788|0.698|B|ANTIOQUIA|LA ESTRELLA|Urbano|6.1562214179999994|-75.64362569|Estrato 3|0|Secundaria (Bachillerato) completa|Secundaria (Bachillerato) completa|N|ACADEMICO|0.792180259149373|2
194|205679000498|I. E. LA PINTADA|ANTIOQUIA|A|MI|131|OFICIAL|0.6312|0.6649|0.6172|0.6753|0.634|0.6461|C|ANTIOQUIA|LA PINTADA|Urbano|5.747341377000001|-75.60797556|Estrato 1|0|Primaria incompleta|Primaria incompleta|N|ACADEMICO|0.39457036457324113|0
195|205679000498|I. E. LA PINTADA|ANTIOQUIA|A|MI|81|OFICIAL|0.4761|0.5334|0.5058|0.5621|0.5228|0.5196|D|ANTIOQUIA|LA PINTADA|Urbano|5.747341377000001|-75.60797556|Estrato 1|0|Primaria incompleta|Primaria incompleta|N|ACADEMICO|0.24898524369869213|0
196|305088000035|I.E CEVIDA|ANTIOQUIA|A|MI|91|NO OFICIAL|0.6533|0.6814|0.6748|0.7096|0.6567|0.6779999999999999|B|ANTIOQUIA|BELLO|Urbano|6.3438109388|-75.54868058|Estrato 2|0|Secundaria (Bachillerato) completa|Secundaria (Bachillerato) completa|N|TECNICO|0.30881797277466977|3
197|305380000046|COLEGIO LIZARDI MONTOYA|ANTIOQUIA|A|MI|50|NO OFICIAL|0.6972|0.7275|0.7107|0.7399|0.7446|0.7208|A|ANTIOQUIA|LA ESTRELLA|Urbano|6.1560775822|-75.63100521|Estrato 3|0|Tecnica o tecnologica completa|No sabe|N|ACADEMICO|0.19506923188703315|2
198|305001017590|COL PADRE MANYANET|ANTIOQUIA|A|MI|323|NO OFICIAL|0.8178|0.8152|0.8163|0.8274|0.8624|0.8225|A+|ANTIOQUIA|MEDELLIN|Urbano|6.220036927000019|-75.60952663099991|Estrato 4|0|Educacion profesional completa|Educacion profesional completa|N|ACADEMICO|0.7672419695420575|0
199|205086000033|I. E. R.  LABORES|ANTIOQUIA|A|MI|57|OFICIAL|0.6354|0.6355|0.6152|0.6764|0.6021|0.6377|C|ANTIOQUIA|BELMIRA|Rural|6.71162617|-75.61248517|Estrato 2|0|Primaria incompleta|Primaria incompleta|None|ACADEMICO|0.20515102270747698|5
200|305001005907|COL EMILIA RIQUELME|ANTIOQUIA|A|MI|52|NO OFICIAL|0.7103|0.7363|0.7346|0.7541|0.7343|0.7338|A|ANTIOQUIA|MEDELLIN|Urbano|6.28277869400006|-75.56277903599991|Estrato 3|0|Secundaria (Bachillerato) completa|Secundaria (Bachillerato) completa|N|ACADEMICO|0.20362208719547303|2
201|305887000412|FUNDACION ESCUELA NORMAL SUPERIOR  LA MERCED|ANTIOQUIA|A|MI|73|NO OFICIAL|0.6982|0.6819|0.6905|0.7408|0.6835|0.7014|B|ANTIOQUIA|YARUMAL|Urbano|6.961477971|-75.41289879|Estrato 3|0|Secundaria (Bachillerato) completa|Primaria completa|N|TECNICO/ACADEMICO|0.263907753596331|1
202|305001004994|COL SANTA TERESITA|ANTIOQUIA|A|F|58|NO OFICIAL|0.7238|0.7437|0.7325|0.7742|0.7762|0.7461|A|ANTIOQUIA|MEDELLIN|Urbano|6.25308363400006|-75.608101599|Estrato 3|0|Tecnica o tecnologica completa|Secundaria (Bachillerato) completa|N|ACADEMICO|0.22534434810467868|2
203|305001014264|COL HISPANO|ANTIOQUIA|A|MI|43|NO OFICIAL|0.6226|0.628|0.6069|0.6482|0.6985|0.632|C|ANTIOQUIA|MEDELLIN|Urbano|6.24088318300005|-75.598584836|Estrato 4|0|Educacion profesional completa|Secundaria (Bachillerato) completa|N|ACADEMICO|0.16023297174838205|0
204|105001005410|INST EDUC JUAN DE DIOS CARVAJAL|ANTIOQUIA|A|MI|176|OFICIAL|0.6684|0.6729|0.6743|0.7234|0.6812|0.6845|B|ANTIOQUIA|MEDELLIN|Urbano|6.2556456870000305|-75.5510620279999|Estrato 3|0|Secundaria (Bachillerato) completa|Secundaria (Bachillerato) completa|N|TECNICO/ACADEMICO|0.4948082518348883|1
205|105250000932|I. E. LA ESMERALDA|ANTIOQUIA|A|MI|96|OFICIAL|0.5942|0.6108|0.6248|0.6633|0.6178|0.6229|C|ANTIOQUIA|EL BAGRE|Urbano|7.599444|-74.809167|Estrato 1|0|Secundaria (Bachillerato) incompleta|Secundaria (Bachillerato) incompleta|N|ACADEMICO|0.30867362628602035|0
206|205250000023|I. E. R. PUERTO CLAVER|ANTIOQUIA|A|MI|169|OFICIAL|0.5722|0.5825|0.5742|0.6312|0.5547|0.5873|D|ANTIOQUIA|EL BAGRE|Rural|7.712498967999999|-74.7515557|Estrato 1|0|Primaria incompleta|Primaria incompleta|N|ACADEMICO|0.4476804390398472|0
207|205674000279|I. E.  RURAL CHAPARRAL|ANTIOQUIA|A|MI|79|OFICIAL|0.6662|0.6363|0.6364|0.6881|0.6995|0.66|C|ANTIOQUIA|SAN VICENTE|Rural|6.263056|-75.376389|Estrato 2|0|Primaria incompleta|Primaria incompleta|N|ACADEMICO|0.272729726673111|5
208|105212000538|I. E. GABRIELA MISTRAL|ANTIOQUIA|A|MI|85|OFICIAL|0.6384|0.6631|0.6318|0.691|0.5958|0.6515|C|ANTIOQUIA|COPACABANA|Urbano|6.3541196553|-75.49448986|Estrato 2|0|Secundaria (Bachillerato) completa|Secundaria (Bachillerato) incompleta|N|ACADEMICO|0.2871297224376068|5
209|105837006097|I.E. TURBO|ANTIOQUIA|A|MI|315|OFICIAL|0.5529|0.5764|0.5608|0.6202|0.5795|0.5777|D|ANTIOQUIA|TURBO|Urbano|8.091357812|-76.71978668|Estrato 1|0|Secundaria (Bachillerato) completa|Secundaria (Bachillerato) completa|N|TECNICO/ACADEMICO|0.6341269476115532|0
210|205631000020|I. E. PRIMITIVO LEAL LA DOCTORA|ANTIOQUIA|A|MI|115|OFICIAL|0.7166|0.7315|0.7153|0.7506|0.7227|0.7281|A|ANTIOQUIA|SABANETA|Rural|6.141261675700001|-75.61321724|Estrato 2|0|Secundaria (Bachillerato) incompleta|Secundaria (Bachillerato) incompleta|N|ACADEMICO|0.3817484131958071|5
211|205001019318|INST EDUC SAN JOSE OBRERO|ANTIOQUIA|A|MI|326|OFICIAL|0.7125|0.7085|0.711|0.7573|0.7231|0.7224|A|ANTIOQUIA|MEDELLIN|Rural|6.1782010000000005|-75.661364|Estrato 2|0|Secundaria (Bachillerato) incompleta|Primaria incompleta|N|TECNICO/ACADEMICO|0.7192589527337354|3
212|205837000379|I.E. NUEVA COLONIA|ANTIOQUIA|A|MI|237|OFICIAL|0.5558|0.5842|0.5429999999999999|0.6041|0.5434|0.5696|D|ANTIOQUIA|TURBO|Rural|7.93723286|-76.71586116|Estrato 1|0|Secundaria (Bachillerato) completa|Secundaria (Bachillerato) completa|N|TECNICO/ACADEMICO|0.5418299457573585|0
213|105154001880|I. E. DIVINO NINO|ANTIOQUIA|A|MI|230|OFICIAL|0.7333|0.7272|0.7233|0.7576|0.6842|0.7314|A|ANTIOQUIA|CAUCASIA|Urbano|7.983333|-75.2|Estrato 1|0|Secundaria (Bachillerato) completa|Secundaria (Bachillerato) incompleta|N|ACADEMICO|0.6017967798840244|0
214|105001005495|INST EDUC REPUBLICA DE URUGUAY|ANTIOQUIA|A|MI|302|OFICIAL|0.6913|0.6971|0.6768|0.7303|0.6858|0.6979|B|ANTIOQUIA|MEDELLIN|Urbano|6.283846207000071|-75.577246711|Estrato 3|0|Secundaria (Bachillerato) completa|Secundaria (Bachillerato) completa|N|TECNICO/ACADEMICO|0.6803863131937553|1
215|205615000125|I. E. DOMINGO SAVIO|ANTIOQUIA|A|MI|76|OFICIAL|0.7029|0.7063|0.674|0.7217|0.7177|0.7025|B|ANTIOQUIA|RIONEGRO|Rural|6.15|-75.383333|Estrato 3|0|Secundaria (Bachillerato) completa|Secundaria (Bachillerato) completa|N|TECNICO/ACADEMICO|0.27282598176785955|1
216|105736000055|I. E.  SANTO DOMINGO SAVIO|ANTIOQUIA|A|MI|264|OFICIAL|0.6254|0.6116|0.6196|0.6753|0.6082|0.6311|C|ANTIOQUIA|SEGOVIA|Urbano|7.0808518857000005|-74.69831048|Estrato 1|0|Primaria incompleta|Primaria incompleta|N|ACADEMICO|0.6034524804219021|0
217|305001003955|COMUNIDAD COLEGIO JESUS MARIA|ANTIOQUIA|A|F|186|NO OFICIAL|0.8723|0.8573|0.8627|0.8683|0.9263|0.8699|A+|ANTIOQUIA|MEDELLIN|Urbano|6.254891836000071|-75.594301388|Estrato 5|0|Educacion profesional completa|Educacion profesional completa|N|ACADEMICO|0.582107419625048|0
218|105001003131|INST EDUC REPUBLICA DE HONDURAS|ANTIOQUIA|A|MI|82|OFICIAL|0.6958|0.7046|0.7011|0.7144|0.6267|0.6981|B|ANTIOQUIA|MEDELLIN|Urbano|6.290774354000059|-75.5595407869999|Estrato 2|0|Secundaria (Bachillerato) completa|No sabe|N|ACADEMICO|0.2889152484950124|5
219|105001001660|INST EDUC JOSE ANTONIO GALAN|ANTIOQUIA|A|MI|140|OFICIAL|0.6905|0.6839|0.6439|0.7073|0.6828|0.6815|B|ANTIOQUIA|MEDELLIN|Urbano|6.28502576000005|-75.552259401|Estrato 2|0|Secundaria (Bachillerato) completa|Secundaria (Bachillerato) completa|N|ACADEMICO|0.4242678032530608|5
220|105001002526|INST EDUC SAMUEL BARRIENTOS RESTREPO|ANTIOQUIA|A|MI|317|OFICIAL|0.6683|0.6869|0.6782|0.7109|0.6651|0.6845|B|ANTIOQUIA|MEDELLIN|Urbano|6.25426592400004|-75.611514362|Estrato 2|0|Secundaria (Bachillerato) completa|Secundaria (Bachillerato) completa|N|TECNICO/ACADEMICO|0.6902550114787878|3
221|105001004472|INST EDUC LA PRESENTACION|ANTIOQUIA|A|F|198|OFICIAL|0.7835|0.7774|0.7835|0.8033|0.8045|0.7882|A+|ANTIOQUIA|MEDELLIN|Urbano|6.21382739900002|-75.584947315|Estrato 3|0|Tecnica o tecnologica completa|Tecnica o tecnologica completa|N|ACADEMICO|0.5730252634981057|2
222|205145000140|I. E. R. ALEGRIAS|ANTIOQUIA|A|MI|37|OFICIAL|0.6187|0.6646|0.6531|0.6777|0.5948|0.649|C|ANTIOQUIA|CARAMANTA|Rural|5.550292506|-75.61012183|Estrato 1|0|Primaria incompleta|Primaria incompleta|None|ACADEMICO|0.14209222786270415|0
223|105001001252|INST EDUC CRISTOBAL COLON|ANTIOQUIA|A|MI|145|OFICIAL|0.7183|0.7078|0.7174|0.7629|0.7222|0.7263|A|ANTIOQUIA|MEDELLIN|Urbano|6.25041172000005|-75.613343589|Estrato 2|0|Secundaria (Bachillerato) completa|Secundaria (Bachillerato) completa|N|ACADEMICO|0.44890378728625535|5
224|105045000164|I.E. MADRE LAURA|ANTIOQUIA|A|MI|304|OFICIAL|0.7127|0.7075|0.7243|0.7496|0.7591|0.7263|A|ANTIOQUIA|APARTADO|Urbano|7.885804096|-76.63284577|Estrato 2|0|Secundaria (Bachillerato) completa|Secundaria (Bachillerato) completa|None|TECNICO/ACADEMICO|0.6967553473355443|3
225|105001003441|INS TEC INDUSTRIAL PASCUAL BRAVO|ANTIOQUIA|A|MI|726|OFICIAL|0.7757|0.7649|0.7621|0.7795|0.7597|0.7697|A|ANTIOQUIA|MEDELLIN|Urbano|6.272991518000031|-75.585416878|Estrato 3|0|Secundaria (Bachillerato) completa|Secundaria (Bachillerato) completa|N|TECNICO/ACADEMICO|1.0155198685101037|1
226|105001003280|INST EDUC MARIA MONTESSORI|ANTIOQUIA|A|MI|117|OFICIAL|0.6822|0.6754|0.6481|0.7055|0.6803|0.6779999999999999|B|ANTIOQUIA|MEDELLIN|Urbano|6.28698034900003|-75.5751668349999|Estrato 3|0|Secundaria (Bachillerato) incompleta|Secundaria (Bachillerato) incompleta|N|TECNICO/ACADEMICO|0.3727785928454975|1
227|305001015686|INST EDUC MAESTRO ARENAS BETANCUR|ANTIOQUIA|A|MI|128|OFICIAL|0.7453|0.7267|0.7254|0.7625|0.7329|0.7394|A|ANTIOQUIA|MEDELLIN|Urbano|6.29299306647275|-75.571027616138|Estrato 3|0|Secundaria (Bachillerato) completa|Secundaria (Bachillerato) completa|N|ACADEMICO|0.4155573293832624|2
228|105001006483|INST EDUC RODRIGO CORREA PALACIO|ANTIOQUIA|A|MI|61|OFICIAL|0.6479|0.6568|0.6508|0.6839|0.6551|0.6595|C|ANTIOQUIA|MEDELLIN|Urbano|6.29749818300007|-75.568560207|Estrato 3|0|Secundaria (Bachillerato) completa|Secundaria (Bachillerato) completa|N|TECNICO/ACADEMICO|0.22077046590265703|1
229|105001021199|INST EDUC LA INDEPENDENCIA|ANTIOQUIA|A|MI|241|OFICIAL|0.6214|0.6325|0.6087|0.6704|0.6314|0.6331|C|ANTIOQUIA|MEDELLIN|Urbano|6.253171459000041|-75.62462859|Estrato 1|0|Primaria incompleta|Primaria incompleta|N|TECNICO/ACADEMICO|0.5748225630516979|0
230|105001002496|INST EDUC CRISTO REY|ANTIOQUIA|A|MI|133|OFICIAL|0.7285|0.7158|0.7183|0.7513|0.7158|0.7275|A|ANTIOQUIA|MEDELLIN|Urbano|6.20532769702711|-75.5814896368805|Estrato 3|0|Secundaria (Bachillerato) completa|Secundaria (Bachillerato) incompleta|N|TECNICO/ACADEMICO|0.4233113378391792|1
231|105001000809|INST EDUC PERPETUO SOCORRO|ANTIOQUIA|A|MI|121|OFICIAL|0.6963|0.7026|0.7084|0.7222|0.6678|0.7043|B|ANTIOQUIA|MEDELLIN|Urbano|6.245994669000031|-75.618200013|Estrato 2|0|Secundaria (Bachillerato) completa|Primaria completa|N|TECNICO/ACADEMICO|0.3893438155136269|3
232|105001008249|INST EDUC BELLO HORIZONTE|ANTIOQUIA|A|MI|170|OFICIAL|0.6627|0.6796|0.6907|0.7258|0.6920000000000001|0.6899|B|ANTIOQUIA|MEDELLIN|Urbano|6.282169363435051|-75.5908136791781|Estrato 2|0|Secundaria (Bachillerato) completa|Primaria completa|N|ACADEMICO|0.48585456757144374|5
233|105001006092|INST EDUC JULIO CESAR GARCIA|ANTIOQUIA|A|MI|241|OFICIAL|0.7277|0.7181|0.7087|0.7489|0.7170000000000001|0.7251|A|ANTIOQUIA|MEDELLIN|Urbano|6.3067741050000405|-75.5641915369999|Estrato 3|0|Secundaria (Bachillerato) completa|Secundaria (Bachillerato) completa|N|TECNICO/ACADEMICO|0.6151866628150329|1
234|105101000571|I. E.  SAN JOSE DEL CITARA|ANTIOQUIA|A|MI|106|OFICIAL|0.6604|0.6757|0.6826|0.7263|0.6763|0.6855|B|ANTIOQUIA|CIUDAD BOLIVAR|Urbano|5.8472375491|-76.01899364|Estrato 2|0|Primaria incompleta|Primaria incompleta|N|TECNICO/ACADEMICO|0.3486169641913175|3
235|105101000571|I. E.  SAN JOSE DEL CITARA|ANTIOQUIA|A|MI|117|OFICIAL|0.5449|0.5789|0.5842|0.6223|0.5449|0.5797|D|ANTIOQUIA|CIUDAD BOLIVAR|Urbano|5.8472375491|-76.01899364|Estrato 2|0|Primaria incompleta|Primaria incompleta|N|TECNICO/ACADEMICO|0.3457362697794265|3
236|205045000134|I.E.R. EL REPOSO|ANTIOQUIA|A|MI|216|OFICIAL|0.6344|0.6619|0.6459|0.6929|0.6454|0.6578|C|ANTIOQUIA|APARTADO|Rural|7.800832000000001|-76.655974|Estrato 1|0|Primaria incompleta|Primaria incompleta|N|ACADEMICO|0.5499353061066863|0
237|105145000145|I. E. JUAN PABLO GOMEZ OCHOA|ANTIOQUIA|A|MI|92|OFICIAL|0.6168|0.6536|0.6448|0.6773|0.5724|0.6423|C|ANTIOQUIA|CARAMANTA|Urbano|5.5479447893|-75.64278564|Estrato 1|0|Primaria incompleta|Primaria incompleta|N|TECNICO/ACADEMICO|0.303226786521679|0
238|305837005871|COL. DIOCESANO NUESTRA SENORA DEL CARMEN|ANTIOQUIA|A|MI|72|NO OFICIAL|0.6854|0.6638|0.6817|0.7120000000000001|0.688|0.6859|B|ANTIOQUIA|TURBO|Urbano|8.089432779|-76.72168564|Estrato 2|0|Educacion profesional completa|Primaria completa|N|ACADEMICO|0.2580424936381239|5
239|205030000189|I. E. LUIS CARLOS PARRA MOLINA|ANTIOQUIA|A|MI|57|OFICIAL|0.5682|0.5946|0.5938|0.6375|0.5893|0.5978|D|ANTIOQUIA|AMAGA|Rural|6.06440635|-75.70951334|Estrato 1|0|Primaria completa|Primaria incompleta|None|ACADEMICO|0.1989251809335925|0
240|105001019062|INST EDUC ALFONSO MORA NARANJO|ANTIOQUIA|A|MI|84|OFICIAL|0.6647|0.6662|0.6941|0.7278|0.6721|0.687|B|ANTIOQUIA|MEDELLIN|Urbano|6.27117758200006|-75.556997047|Estrato 3|0|Secundaria (Bachillerato) incompleta|Secundaria (Bachillerato) incompleta|N|ACADEMICO|0.29207635411421945|2
241|105679000426|I. E. TOMAS EASTMAN|ANTIOQUIA|A|MI|270|OFICIAL|0.7019|0.6938|0.6768|0.723|0.6625|0.6961|B|ANTIOQUIA|SANTA BARBARA|Rural|5.872222|-75.564167|Estrato 2|0|Secundaria (Bachillerato) completa|Secundaria (Bachillerato) completa|N|ACADEMICO|0.641111622409942|5
242|105679000426|I. E. TOMAS EASTMAN|ANTIOQUIA|A|MI|63|OFICIAL|0.5636|0.5795|0.5506|0.6151|0.5672|0.5764|D|ANTIOQUIA|SANTA BARBARA|Rural|5.872222|-75.564167|Estrato 2|0|Secundaria (Bachillerato) completa|Secundaria (Bachillerato) completa|N|ACADEMICO|0.2126807575794673|5
243|205045000363|I. E. R. ZUNGO EMBARCADERO|ANTIOQUIA|A|MI|116|OFICIAL|0.5895|0.6269|0.5798|0.6372|0.6015|0.6078|D|ANTIOQUIA|CAREPA|Rural|7.751666999999999|-76.656944|Estrato 1|0|Secundaria (Bachillerato) completa|Primaria incompleta|N|ACADEMICO|0.3512714339417573|0
244|105360002299|I.E. CIUDAD ITAGUI|ANTIOQUIA|A|MI|197|OFICIAL|0.6503|0.6639|0.6762|0.7333|0.6812|0.6809999999999999|B|ANTIOQUIA|ITAGUI|Urbano|6.180833|-75.599722|Estrato 2|0|Secundaria (Bachillerato) completa|Secundaria (Bachillerato) completa|N|TECNICO/ACADEMICO|0.5294657130286731|3
245|105002000047|I. E. FUNDACION CELIA DUQUE DE DUQUE|ANTIOQUIA|A|MI|86|OFICIAL|0.7221|0.7222|0.7488|0.7495|0.7281|0.7351|A|ANTIOQUIA|ABEJORRAL|Urbano|5.786431299|-75.42679181|Estrato 2|0|Primaria completa|Primaria incompleta|N|TECNICO/ACADEMICO|0.3080047830342715|3
246|105093000109|I. E. SAN JOSE|ANTIOQUIA|A|MI|244|OFICIAL|0.6285|0.6281|0.6371|0.6795|0.6176|0.6413|C|ANTIOQUIA|BETULIA|Urbano|6.1134911692|-75.98378983|Estrato 1|0|Primaria incompleta|Primaria incompleta|N|TECNICO/ACADEMICO|0.5824394934481351|0
247|105093000109|I. E. SAN JOSE|ANTIOQUIA|A|MI|164|OFICIAL|0.4873|0.5386|0.5264|0.5829|0.5163|0.5324|D|ANTIOQUIA|BETULIA|Urbano|6.1134911692|-75.98378983|Estrato 1|0|Primaria incompleta|Primaria incompleta|N|TECNICO/ACADEMICO|0.41997129573408143|0
248|105001006980|INST EDUC CONCEJO DE MEDELLIN|ANTIOQUIA|A|MI|726|OFICIAL|0.7477|0.7395|0.7427|0.7729|0.7241|0.7487|A|ANTIOQUIA|MEDELLIN|Urbano|6.2582383630000304|-75.600620282|Estrato 3|0|Secundaria (Bachillerato) completa|Secundaria (Bachillerato) completa|N|TECNICO/ACADEMICO|1.0007794643720391|1
249|205088000120|I.E. SAN GABRIEL ARCANGEL|ANTIOQUIA|A|MI|43|OFICIAL|0.6231|0.6548|0.6289|0.6945|0.6244|0.6483|C|ANTIOQUIA|BELLO|Urbano|6.34695555|-75.52511190000001|Estrato 2|0|Secundaria (Bachillerato) completa|Primaria incompleta|None|ACADEMICO|0.16222813257958046|5
250|105368000015|I. E. SAN JOSE|ANTIOQUIA|A|MI|142|OFICIAL|0.7337|0.7088|0.7098|0.7562|0.7379|0.728|A|ANTIOQUIA|JERICO|Urbano|5.7904597284|-75.78740753|Estrato 2|0|Secundaria (Bachillerato) completa|Primaria incompleta|N|TECNICO/ACADEMICO|0.44308103137853005|3
251|105001000621|INST EDUC ESCUELA NORMAL SUPERIOR DE MEDELLIN|ANTIOQUIA|A|MI|376|OFICIAL|0.7651|0.7527|0.7465|0.7756|0.7363|0.7582|A|ANTIOQUIA|MEDELLIN|Urbano|6.25357937000007|-75.54862004099991|Estrato 2|0|Secundaria (Bachillerato) completa|Secundaria (Bachillerato) completa|N|TECNICO/ACADEMICO|0.7886308044777617|3
252|305001022232|INST EDUC  BARRIO OLAYA HERRERA|ANTIOQUIA|A|MI|168|OFICIAL|0.6326|0.654|0.626|0.6807|0.622|0.6463|C|ANTIOQUIA|MEDELLIN|Urbano|6.2730225200000405|-75.60890485|Estrato 1|0|Secundaria (Bachillerato) incompleta|Primaria incompleta|N|ACADEMICO|0.4667762070922036|0
253|105001003298|INST EDUC LORENZA VILLEGAS DE SANTOS|ANTIOQUIA|A|F|309|OFICIAL|0.695|0.6865|0.6847|0.7423|0.6741|0.7|B|ANTIOQUIA|MEDELLIN|Urbano|6.280223096000039|-75.560754055|Estrato 2|0|Secundaria (Bachillerato) completa|Secundaria (Bachillerato) completa|N|TECNICO/ACADEMICO|0.6893138340386623|3
254|305001018022|INST EDUC FE Y ALEGRIA LUIS AMIGO|ANTIOQUIA|A|MI|124|OFICIAL|0.648|0.6479|0.6565|0.7166|0.6431|0.6654|C|ANTIOQUIA|MEDELLIN|Urbano|6.2790049530000305|-75.566193034|Estrato 2|0|Secundaria (Bachillerato) completa|Secundaria (Bachillerato) completa|N|TECNICO/ACADEMICO|0.3850700863916434|3
255|105001009695|INST EDUC SAN JUAN BOSCO|ANTIOQUIA|A|F|163|OFICIAL|0.7174|0.7243|0.7116|0.7543|0.7263|0.7269|A|ANTIOQUIA|MEDELLIN|Urbano|6.2763001935|-75.5612756702|Estrato 3|0|Secundaria (Bachillerato) completa|Secundaria (Bachillerato) completa|N|TECNICO/ACADEMICO|0.4855643472512288|1
256|205604001049|I. E. R. LA CRUZADA|ANTIOQUIA|A|MI|256|OFICIAL|0.5505|0.5612|0.5554|0.6272|0.5817|0.5742|D|ANTIOQUIA|REMEDIOS|Rural|7.069162309|-74.71555558|Estrato 2|0|Secundaria (Bachillerato) completa|Primaria incompleta|N|TECNICO/ACADEMICO|0.5676486365759965|3
257|105361000443|I. E. PEDRO NEL OSPINA|ANTIOQUIA|A|MI|380|OFICIAL|0.5887|0.6058|0.6177|0.6542|0.5836|0.6141|D|ANTIOQUIA|ITUANGO|Urbano|7.167367126|-75.76381199|Estrato 2|0|Primaria incompleta|Primaria incompleta|N|TECNICO/ACADEMICO|0.7128332470825836|3
258|105361000443|I. E. PEDRO NEL OSPINA|ANTIOQUIA|A|MI|120|OFICIAL|0.4457|0.4995|0.4744|0.5276|0.4967|0.4876|D|ANTIOQUIA|ITUANGO|Urbano|7.167367126|-75.76381199|Estrato 2|0|Primaria incompleta|Primaria incompleta|N|TECNICO/ACADEMICO|0.32631317740905336|3
259|105036000097|I. E.  SAN JOSE|ANTIOQUIA|A|MI|120|OFICIAL|0.637|0.6504|0.633|0.6877|0.6253|0.65|C|ANTIOQUIA|ANGELOPOLIS|Urbano|6.1105806320000005|-75.7130685|Estrato 2|0|Primaria incompleta|Primaria incompleta|N|ACADEMICO|0.37181399459327|5
260|205282000441|I. E. R. MURRAPAL|ANTIOQUIA|A|MI|46|OFICIAL|0.5966|0.6317|0.5951|0.6584|0.5752|0.617|D|ANTIOQUIA|FREDONIA|Rural|5.902222|-75.69805600000001|Estrato 1|0|Primaria incompleta|Primaria incompleta|N|ACADEMICO|0.16801309997830668|0
261|205282000441|I. E. R. MURRAPAL|ANTIOQUIA|A|MI|27|OFICIAL|0.4644|0.5037|0.5336|0.5771|0.5005|0.5182|D|ANTIOQUIA|FREDONIA|Rural|5.902222|-75.69805600000001|Estrato 1|0|Primaria incompleta|Primaria incompleta|N|ACADEMICO|0.0962486881120398|0
262|105649000014|I. E. JOAQUIN CARDENAS GOMEZ|ANTIOQUIA|A|MI|258|OFICIAL|0.7001|0.6923|0.6872|0.7353|0.6774|0.7017|B|ANTIOQUIA|SAN CARLOS|Urbano|6.189375101|-74.98784414|Estrato 2|0|Primaria incompleta|Primaria incompleta|N|ACADEMICO|0.6281505524478894|5
263|105649000014|I. E. JOAQUIN CARDENAS GOMEZ|ANTIOQUIA|A|MI|168|OFICIAL|0.5104|0.5427|0.5344|0.5784|0.5372|0.5412|D|ANTIOQUIA|SAN CARLOS|Urbano|6.189375101|-74.98784414|Estrato 2|0|Primaria incompleta|Primaria incompleta|N|ACADEMICO|0.42970545336556065|5
264|105002000161|I. E. ESCUELA NORMAL SUPERIOR|ANTIOQUIA|A|MI|147|OFICIAL|0.725|0.727|0.7043|0.7402|0.6662|0.7197|B|ANTIOQUIA|ABEJORRAL|Urbano|5.7881339277|-75.42921627|Estrato 2|0|Secundaria (Bachillerato) completa|Primaria incompleta|N|TECNICO/ACADEMICO|0.45096555899025803|3
265|205895000206|I. E.R.  NANCY ROCIO GARCIA|ANTIOQUIA|A|MI|64|OFICIAL|0.5971|0.633|0.6387|0.6629999999999999|0.6006|0.6305|C|ANTIOQUIA|ZARAGOZA|Rural|7.607033257|-74.81367521|Estrato 1|0|Primaria incompleta|Primaria incompleta|None|ACADEMICO|0.22477634006166713|0
266|105360000024|INSTITUCION EDUCATIVA CONCEJO MUNICIPAL DE ITAGUI|ANTIOQUIA|A|MI|402|OFICIAL|0.759|0.7572|0.7375|0.7612|0.7803|0.7558|A|ANTIOQUIA|ITAGUI|Urbano|6.168471192|-75.64387219|Estrato 2|0|Secundaria (Bachillerato) completa|Secundaria (Bachillerato) completa|N|TECNICO/ACADEMICO|0.8109421068737109|3
267|105360000083|INSTITUCION EDUCATIVA SAN JOSE|ANTIOQUIA|A|MI|447|OFICIAL|0.7622|0.7796|0.7681|0.7805|0.7529|0.7711|A+|ANTIOQUIA|ITAGUI|Urbano|6.168311527|-75.61852632|Estrato 3|0|Secundaria (Bachillerato) completa|Secundaria (Bachillerato) completa|N|TECNICO/ACADEMICO|0.8570505146551151|1
268|105088000486|IE PLAYA RICA|ANTIOQUIA|A|MI|182|OFICIAL|0.6397|0.6386|0.6187|0.688|0.6391|0.6457|C|ANTIOQUIA|BELLO|Urbano|6.344052249500001|-75.56726344|Estrato 2|0|Secundaria (Bachillerato) completa|Secundaria (Bachillerato) completa|N|TECNICO|0.4910125087861539|3
269|105490000026|I. E. ANTONIO ROLDAN BETANCUR|ANTIOQUIA|A|MI|161|OFICIAL|0.6377|0.6395|0.6546|0.6868|0.6356|0.6532|C|ANTIOQUIA|NECOCLI|Urbano|8.426130956|-76.78415725|Estrato 1|0|Secundaria (Bachillerato) incompleta|Primaria incompleta|N|ACADEMICO|0.4563665983978249|0
270|105088000532|IE LA MILAGROSA|ANTIOQUIA|A|MI|121|OFICIAL|0.665|0.6755|0.6921|0.7232|0.7026|0.69|B|ANTIOQUIA|BELLO|Urbano|6.3423911714|-75.5609299|Estrato 2|0|Secundaria (Bachillerato) completa|Secundaria (Bachillerato) completa|N|ACADEMICO|0.3853133007221058|5
271|105088001971|IE JOSEFA CAMPOS|ANTIOQUIA|A|MI|197|OFICIAL|0.7313|0.7311|0.7137|0.7495|0.7045|0.7293|A|ANTIOQUIA|BELLO|Urbano|6.345827792000001|-75.55248506|Estrato 2|0|Secundaria (Bachillerato) completa|Secundaria (Bachillerato) completa|N|TECNICO|0.5482963087144043|3
272|205690000319|I. E. R. PEDRO PABLO CASTRILLON|ANTIOQUIA|A|MI|41|OFICIAL|0.7172|0.757|0.7101|0.7604|0.7233|0.7352|A|ANTIOQUIA|SANTO DOMINGO|Rural|6.543367375|-75.16066134|Estrato 2|0|Primaria incompleta|Primaria incompleta|N|TECNICO/ACADEMICO|0.16576842468881092|3
273|205001001672|INST EDUC MONSE?OR VICTOR WIEDEMANN|ANTIOQUIA|A|MI|281|OFICIAL|0.7184|0.7262|0.7144|0.7516|0.7037|0.7258|A|ANTIOQUIA|MEDELLIN|Rural|6.18390731423432|-75.6420317182898|Estrato 2|0|Secundaria (Bachillerato) completa|Secundaria (Bachillerato) completa|N|TECNICO/ACADEMICO|0.6689383650303695|3
274|305266001709|COLEGIO RUDOLF STEINER|ANTIOQUIA|A|MI|29|NO OFICIAL|0.7821|0.7842|0.7778|0.7875|0.8456|0.7877|A+|ANTIOQUIA|ENVIGADO|Urbano|6.1573078812|-75.58963007|Estrato 3|0|Educacion profesional completa|No sabe|None|ACADEMICO|0.12593601350540143|2
275|105360000318|INSTITUCION EDUCATIVA JOHN F. KENNEDY|ANTIOQUIA|A|MI|226|OFICIAL|0.6763|0.6804|0.6931|0.7361|0.705|0.6972|B|ANTIOQUIA|ITAGUI|Urbano|6.1639649586|-75.62438068|Estrato 3|0|Secundaria (Bachillerato) completa|Secundaria (Bachillerato) completa|N|TECNICO/ACADEMICO|0.5812916753673225|1
276|205665000576|I. E. R. SANTA CATALINA|ANTIOQUIA|A|MI|261|OFICIAL|0.5728|0.5771|0.5648|0.6152|0.5677|0.5813|D|ANTIOQUIA|SAN PEDRO DE URABA|Rural|8.396944|-76.316389|Estrato 1|0|Primaria incompleta|Primaria incompleta|None|ACADEMICO|0.5769077045465434|0
277|405266001631|COLEGIO MANUEL MEJIA VALLEJO|ANTIOQUIA|A|MI|78|NO OFICIAL|0.7598|0.7376|0.7658|0.7851|0.8336|0.7676|A|ANTIOQUIA|ENVIGADO|Urbano|6.1669652603|-75.56378327|Estrato 5|0|Educacion profesional completa|Educacion profesional completa|N|ACADEMICO|0.29170063946361224|0
278|305266000591|COLEGIO TERESIANO|ANTIOQUIA|A|F|195|NO OFICIAL|0.8379|0.8214|0.8345|0.8424|0.8845|0.8379|A+|ANTIOQUIA|ENVIGADO|Urbano|6.1817050808000005|-75.5822797|Estrato 4|0|Educacion profesional completa|Educacion profesional completa|N|ACADEMICO|0.586962830443043|0
279|305266000508|COLEGIO DE LA PRESENTACION - ENVIGADO|ANTIOQUIA|A|F|269|NO OFICIAL|0.778|0.777|0.785|0.7969|0.845|0.7889|A+|ANTIOQUIA|ENVIGADO|Urbano|6.1712378377|-75.58928789|Estrato 3|0|Educacion profesional completa|Educacion profesional completa|N|ACADEMICO|0.6830848521114967|2
280|105030000010|I. E. ESCUELA NORMAL SUPERIOR AMAGA|ANTIOQUIA|A|MI|192|OFICIAL|0.7039|0.7014|0.7074|0.7458|0.6982|0.7133|B|ANTIOQUIA|AMAGA|Urbano|6.0376117460000005|-75.7049181|Estrato 2|0|Secundaria (Bachillerato) completa|Secundaria (Bachillerato) completa|N|TECNICO/ACADEMICO|0.5335804401656528|3
281|105690000322|I. E. TECNICO INDUSTRIAL TOMAS CARRASQUILLA|ANTIOQUIA|A|MI|97|OFICIAL|0.7081|0.7075|0.6908|0.7356|0.6642|0.7069|B|ANTIOQUIA|SANTO DOMINGO|Urbano|6.4743735876|-75.16506340000001|Estrato 2|0|Primaria incompleta|Primaria incompleta|N|TECNICO/ACADEMICO|0.3312230772838404|3
282|105665000024|I. E. CAMILO TORRES|ANTIOQUIA|A|MI|119|OFICIAL|0.7041|0.7018|0.7027|0.7111|0.652|0.7009|B|ANTIOQUIA|SAN PEDRO DE URABA|Urbano|8.2800568672|-76.38072645|Estrato 1|0|Secundaria (Bachillerato) completa|Secundaria (Bachillerato) completa|None|ACADEMICO|0.38375372751835957|0
283|305001004943|COL NUESTRA SENORA DEL ROSARIO DE CHIQUINQUIRA|ANTIOQUIA|A|MI|88|NO OFICIAL|0.8084|0.8014|0.8122|0.8137|0.8544|0.8124|A+|ANTIOQUIA|MEDELLIN|Urbano|6.23652649405|-75.5496306323|Estrato 3|0|Tecnica o tecnologica completa|Educacion profesional completa|N|TECNICO/ACADEMICO|0.3307419081045122|1
284|205665000100|I. E. R. LOS ALMENDROS|ANTIOQUIA|A|MI|59|OFICIAL|0.5107|0.5478|0.5147|0.5721|0.5527|0.5376|D|ANTIOQUIA|SAN PEDRO DE URABA|Rural|8.396389|-76.237222|Estrato 1|0|Primaria completa|Primaria incompleta|N|ACADEMICO|0.1951138056804963|0
285|305001019827|COL PANAMERICANO COLOMBO SUECO|ANTIOQUIA|A|MI|176|NO OFICIAL|0.8011|0.8006|0.8105|0.825|0.8414|0.8118|A+|ANTIOQUIA|MEDELLIN|Urbano|6.283175607000031|-75.587430481|Estrato 3|0|Educacion profesional completa|Educacion profesional completa|N|ACADEMICO|0.5410704859872731|2
286|105001007919|COL SAGRADA FAMILIA ALDEA PABLO VI|ANTIOQUIA|A|MI|86|NO OFICIAL|0.6918|0.7036|0.703|0.7413|0.7007|0.7092|B|ANTIOQUIA|MEDELLIN|Urbano|6.28828062900004|-75.541945775|Estrato 1|0|Secundaria (Bachillerato) completa|Secundaria (Bachillerato) completa|N|ACADEMICO|0.3023557848095695|0
287|405615000906|COLEGIO EL TRIANGULO                                                                                |ANTIOQUIA|A|MI|71|NO OFICIAL|0.8377|0.8199|0.8185|0.8299|0.8957|0.8318|A+|ANTIOQUIA|RIONEGRO|Urbano|6.1336458213|-75.38440279|Estrato 4|0|Educacion profesional completa|Educacion profesional completa|N|ACADEMICO|0.2824400058393779|0
288|305001005621|COL BARBARA MICARELLI|ANTIOQUIA|A|F|94|NO OFICIAL|0.7644|0.7746|0.7786|0.8001|0.7931|0.7805|A+|ANTIOQUIA|MEDELLIN|Urbano|6.28172425500003|-75.5850095289999|Estrato 2|0|Tecnica o tecnologica completa|Educacion profesional completa|N|ACADEMICO|0.34056976106396486|5
289|305088000574|INT PARROQUIAL JESUS DE LA BUENA ESPERANZA|ANTIOQUIA|A|MI|204|NO OFICIAL|0.7378|0.7478|0.7483|0.7844|0.7813|0.7566|A|ANTIOQUIA|BELLO|Urbano|6.3343978845|-75.55630703|Estrato 3|0|Tecnica o tecnologica completa|Secundaria (Bachillerato) completa|N|TECNICO/ACADEMICO|0.570891836040027|1
290|305376000201|COLEGIO MARIA AUXILIADORA|ANTIOQUIA|A|MI|65|NO OFICIAL|0.8085|0.7973|0.7993|0.8065|0.8421|0.8059|A+|ANTIOQUIA|LA CEJA|Rural|6.0163071960000005|-75.43417052|Estrato 3|0|Tecnica o tecnologica completa|Educacion profesional completa|N|ACADEMICO|0.2582180485418194|2
291|105001025780|INST EDUC PBRO ANTONIO JOSE BERNAL LONDONO SJ|ANTIOQUIA|A|MI|538|OFICIAL|0.6883|0.6777|0.6862|0.7316|0.6613|0.6933|B|ANTIOQUIA|MEDELLIN|Urbano|6.30115718900004|-75.5592605529999|Estrato 2|0|Secundaria (Bachillerato) completa|Secundaria (Bachillerato) completa|None|TECNICO/ACADEMICO|0.8711532201913436|3
292|305001005109|COL LA ANUNCIACION|ANTIOQUIA|A|F|133|NO OFICIAL|0.7833|0.7886|0.7754|0.8036|0.7748|0.7867|A+|ANTIOQUIA|MEDELLIN|Urbano|6.23220282000005|-75.54862056|Estrato 3|0|Secundaria (Bachillerato) completa|Educacion profesional completa|N|ACADEMICO|0.44115316879317873|2
293|405440000789|COLEGIO SEMINARIO CORAZONISTA|ANTIOQUIA|A|MI|88|NO OFICIAL|0.9005|0.8788|0.8697|0.8667|0.9251|0.8825|A+|ANTIOQUIA|MARINILLA|Rural|6.174722|-75.340278|Estrato 3|0|Educacion profesional completa|Educacion profesional completa|N|ACADEMICO|0.34630789346913493|2
294|205051001959|I. E. R. LA CANDELARIA|ANTIOQUIA|A|MI|78|OFICIAL|0.6215|0.6399|0.6115|0.644|0.6092|0.6277|C|ANTIOQUIA|ARBOLETES|Rural|8.658056|-76.453056|Estrato 1|0|Secundaria (Bachillerato) completa|Primaria incompleta|N|ACADEMICO|0.26345264567640025|0
295|305001025819|COL CENT FRATERNAL CRISTIANO|ANTIOQUIA|A|MI|25|NO OFICIAL|0.7192|0.7335|0.7522|0.7566|0.7845|0.7438|A|ANTIOQUIA|MEDELLIN|Urbano|6.2527579310000805|-75.560597963|Estrato 2|0|Primaria incompleta|Secundaria (Bachillerato) completa|None|ACADEMICO|0.10657561623930989|5
296|305001003963|LIC SALAZAR Y HERRERA|ANTIOQUIA|A|MI|1566|NO OFICIAL|0.7681|0.7647|0.7736|0.7879|0.785|0.7745|A+|ANTIOQUIA|MEDELLIN|Urbano|6.2489906580000305|-75.60629730699999|Estrato 4|0|Educacion profesional completa|Educacion profesional completa|N|ACADEMICO|1.2128007987995961|0
297|305887001788|COLEGIO CATOLICO LA INMACULADA|ANTIOQUIA|A|MI|62|NO OFICIAL|0.7513|0.7243|0.7168|0.7613|0.7120000000000001|0.7364|A|ANTIOQUIA|YARUMAL|Urbano|6.9658034199|-75.4191405|Estrato 3|0|Secundaria (Bachillerato) completa|Primaria completa|N|ACADEMICO|0.236659193015268|2
298|105212000511|I. E.  PRESBITERO BERNARDO MONTOYA|ANTIOQUIA|A|MI|309|OFICIAL|0.7115|0.7136|0.7002|0.7364|0.6951|0.7139|B|ANTIOQUIA|COPACABANA|Urbano|6.35337|-75.4988804977|Estrato 2|0|Secundaria (Bachillerato) completa|Secundaria (Bachillerato) completa|N|TECNICO/ACADEMICO|0.6962717151337539|3
299|105055000022|I. E. SANTA TERESA|ANTIOQUIA|A|MI|138|OFICIAL|0.6493|0.6579999999999999|0.6729999999999999|0.6922|0.6366|0.6657|C|ANTIOQUIA|ARGELIA|Urbano|5.731250855|-75.13936704|Estrato 1|0|Secundaria (Bachillerato) incompleta|Primaria incompleta|N|ACADEMICO|0.41519543797208647|0
300|105055000022|I. E. SANTA TERESA|ANTIOQUIA|A|MI|72|OFICIAL|0.5055|0.5581|0.5298|0.5827|0.5289|0.5429|D|ANTIOQUIA|ARGELIA|Urbano|5.731250855|-75.13936704|Estrato 1|0|Secundaria (Bachillerato) incompleta|Primaria incompleta|N|ACADEMICO|0.23096913050375634|0
301|205649000787|I. E. R. EL JORDAN|ANTIOQUIA|A|MI|53|OFICIAL|0.6291|0.6601|0.6359|0.6985|0.589|0.6508|C|ANTIOQUIA|SAN CARLOS|Rural|6.25329253|-74.83107727|Estrato 2|0|Secundaria (Bachillerato) completa|Secundaria (Bachillerato) completa|N|ACADEMICO|0.1947879992588747|5
302|105310000031|I. E. GOMEZ PLATA|ANTIOQUIA|A|MI|138|OFICIAL|0.736|0.7251|0.7115|0.7461|0.6852|0.7263|A|ANTIOQUIA|GOMEZ PLATA|Urbano|6.6788976223|-75.22101242|Estrato 1|0|Secundaria (Bachillerato) completa|Primaria incompleta|N|ACADEMICO|0.43393350653583285|0
303|205282000165|I. E. R. PALOMOS|ANTIOQUIA|A|MI|13|OFICIAL|0.6639|0.6686|0.6935|0.7255|0.6659999999999999|0.6862|B|ANTIOQUIA|FREDONIA|Rural|5.969322674|-75.67762254|Estrato 1|0|Primaria incompleta|Primaria incompleta|None|ACADEMICO|0.055158604121170976|0
304|205664000068|I. E. R. OVEJAS|ANTIOQUIA|A|MI|77|OFICIAL|0.6901|0.7229|0.67|0.7038|0.6582|0.6937|B|ANTIOQUIA|SAN PEDRO|Rural|6.396429195|-75.64719497|Estrato 2|0|Secundaria (Bachillerato) completa|Primaria incompleta|N|TECNICO|0.27393976358445604|3
305|105400000189|I. E. PIO XI|ANTIOQUIA|A|MI|214|OFICIAL|0.7120000000000001|0.7193|0.6915|0.7343|0.6691|0.7108|B|ANTIOQUIA|LA UNION|Urbano|5.971717196|-75.36171249|Estrato 2|0|Secundaria (Bachillerato) completa|Primaria incompleta|N|ACADEMICO|0.5686451249479814|5
306|205361001029|I. E. LUIS MARIA PRECIADO ECHAVARRIA|ANTIOQUIA|A|MI|82|OFICIAL|0.6065|0.6279|0.6082|0.6535|0.5805|0.6207|C|ANTIOQUIA|ITUANGO|Rural|7.32095232|-75.61679839|Estrato 1|1|Secundaria (Bachillerato) completa|Primaria incompleta|N|ACADEMICO|0.27265391106226833|0
307|205591000064|I. E. R. HERMANO DANIEL|ANTIOQUIA|A|MI|64|OFICIAL|0.6691|0.6905|0.6414|0.6844|0.5917|0.6652|C|ANTIOQUIA|PUERTO TRIUNFO|Rural|5.926318161|-74.77360313|Estrato 2|0|Primaria incompleta|Primaria incompleta|None|ACADEMICO|0.23074142198484737|5
308|105315000021|I. E.  LUIS LOPEZ DE MESA|ANTIOQUIA|A|MI|132|OFICIAL|0.6221|0.6451|0.6256|0.6846|0.6358|0.6437|C|ANTIOQUIA|GUADALUPE|Urbano|6.812477172|-75.24068823|Estrato 1|0|Primaria incompleta|Primaria incompleta|N|ACADEMICO|0.3959598620775092|0
309|305001019690|INST EDUC ARZOBISPO TULIO BOTERO SALAZAR|ANTIOQUIA|A|MI|162|OFICIAL|0.6686|0.6549|0.6551|0.7084|0.6321|0.6687|C|ANTIOQUIA|MEDELLIN|Urbano|6.23035585642165|-75.53254918835479|Estrato 1|0|Primaria incompleta|Primaria incompleta|N|TECNICO/ACADEMICO|0.4635639182304948|0
310|105129000208|I. E. MARIA AUXILIADORA|ANTIOQUIA|A|MI|165|OFICIAL|0.7762|0.7668|0.765|0.7893|0.7596|0.7732|A+|ANTIOQUIA|CALDAS|Urbano|6.0902040836|-75.63559428|Estrato 2|0|Secundaria (Bachillerato) completa|Secundaria (Bachillerato) completa|N|ACADEMICO|0.5055861168200065|5
311|105190000181|I. E. CISNEROS|ANTIOQUIA|A|MI|289|OFICIAL|0.6225|0.6176|0.6184|0.6616|0.6217|0.6294|C|ANTIOQUIA|CISNEROS|Urbano|6.53871585|-75.08477484|Estrato 2|0|Secundaria (Bachillerato) completa|Primaria incompleta|N|ACADEMICO|0.6321257449154807|5
312|105837004922|I.E. FRANCISCO LUIS VALDERRAMA VALDERRAMA|ANTIOQUIA|A|MI|362|OFICIAL|0.5878|0.6043|0.5974|0.66|0.5714|0.6092|D|ANTIOQUIA|TURBO|Urbano|8.093444263|-76.72211688|Estrato 1|0|Secundaria (Bachillerato) completa|Secundaria (Bachillerato) completa|N|TECNICO/ACADEMICO|0.6946566222352641|0
313|205051000081|I. E. R. PAJILLAL|ANTIOQUIA|A|MI|46|OFICIAL|0.5988|0.635|0.6197|0.6474|0.6092|0.624|C|ANTIOQUIA|ARBOLETES|Rural|8.755|-76.453611|Estrato 1|0|Primaria incompleta|Primaria incompleta|N|ACADEMICO|0.16892193429950342|0
314|105847001204|I. E. MONSENOR J. IVAN CADAVID GUTIERREZ|ANTIOQUIA|A|MI|305|OFICIAL|0.6515|0.6524|0.6581|0.6889|0.6167|0.6592|C|ANTIOQUIA|URRAO|Urbano|6.313056|-76.130833|Estrato 1|0|Primaria incompleta|Primaria incompleta|N|TECNICO/ACADEMICO|0.6645380161246637|0
315|205631000267|I. E. PRESBITERO ANTONIO BAENA SALAZAR|ANTIOQUIA|A|MI|97|OFICIAL|0.7264|0.7432|0.7528|0.7777|0.7316|0.7486|A|ANTIOQUIA|SABANETA|Rural|6.139177974|-75.62968285|Estrato 2|0|Secundaria (Bachillerato) completa|Secundaria (Bachillerato) completa|N|ACADEMICO|0.3412030920876894|5
316|105360000296|INSTITUCION EDUCATIVA ANTONIO JOSE DE SUCRE|ANTIOQUIA|A|MI|220|OFICIAL|0.7433|0.7536|0.7714|0.7779|0.7718|0.7623|A|ANTIOQUIA|ITAGUI|Urbano|6.1672942058|-75.61643613|Estrato 3|0|Secundaria (Bachillerato) completa|Secundaria (Bachillerato) completa|N|TECNICO/ACADEMICO|0.5993953160222327|1
317|105360000857|I.E. LUIS CARLOS GALAN|ANTIOQUIA|A|MI|132|OFICIAL|0.7269|0.7138|0.7127|0.7546|0.7086|0.7256|A|ANTIOQUIA|ITAGUI|Urbano|6.173945622000001|-75.62890348|Estrato 2|0|Secundaria (Bachillerato) completa|Secundaria (Bachillerato) completa|N|TECNICO/ACADEMICO|0.42051312121900364|3
318|205615000401|I. E. BARRO BLANCO|ANTIOQUIA|A|MI|160|OFICIAL|0.7554|0.7513|0.7348|0.7659999999999999|0.7528|0.7519|A|ANTIOQUIA|RIONEGRO|Rural|6.155382319|-75.40944922|Estrato 3|0|Secundaria (Bachillerato) completa|Secundaria (Bachillerato) completa|N|ACADEMICO|0.48822246105572653|2
319|205615000877|I. E. SAN ANTONIO|ANTIOQUIA|A|MI|187|OFICIAL|0.7123|0.7042|0.6959|0.7396|0.7202|0.7135|B|ANTIOQUIA|RIONEGRO|Urbano|6.1301971148000005|-75.38080361|Estrato 3|0|Secundaria (Bachillerato) completa|Secundaria (Bachillerato) incompleta|N|ACADEMICO|0.5250067911091534|2
320|305360000066|INSTITUTO CRISTO REY|ANTIOQUIA|A|MI|137|NO OFICIAL|0.7694|0.7514|0.757|0.7746|0.7817|0.7645|A|ANTIOQUIA|ITAGUI|Urbano|6.1733475085|-75.607079|Estrato 3|0|Secundaria (Bachillerato) completa|Tecnica o tecnologica completa|N|ACADEMICO|0.44350900033963553|2
321|205679000331|I. E. EL GUAYABO|ANTIOQUIA|A|MI|102|OFICIAL|0.6717|0.6589|0.6623|0.7138|0.6297|0.6731|B|ANTIOQUIA|SANTA BARBARA|Rural|5.921389|-75.583333|Estrato 2|0|Primaria incompleta|Primaria incompleta|N|ACADEMICO|0.33564938776907854|5
322|105088002705|IE VILLA DEL SOL|ANTIOQUIA|A|MI|244|OFICIAL|0.7268|0.7294|0.7052|0.7411|0.6970000000000001|0.7234|A|ANTIOQUIA|BELLO|Urbano|6.35159489|-75.56701852|Estrato 2|0|Secundaria (Bachillerato) completa|Secundaria (Bachillerato) completa|N|ACADEMICO|0.6187103607304092|5
323|205890000062|I. E. R. LA FLORESTA|ANTIOQUIA|A|MI|51|OFICIAL|0.5897|0.5647|0.5601|0.6228|0.5379|0.5808|D|ANTIOQUIA|YOLOMBO|Rural|6.635227287999999|-74.86396079|Estrato 2|0|Primaria completa|Primaria incompleta|N|TECNICO/ACADEMICO|0.17854487030566785|3
324|305001003696|LIC SAN RAFAEL|ANTIOQUIA|A|MI|106|NO OFICIAL|0.7667|0.7649|0.7887|0.8004|0.7864|0.7807|A+|ANTIOQUIA|MEDELLIN|Urbano|6.23250974000007|-75.599263279|Estrato 4|0|Educacion profesional completa|Secundaria (Bachillerato) completa|N|ACADEMICO|0.37297419325238435|0
325|205674000341|I.E.R. LA MAGDALENA|ANTIOQUIA|A|MI|84|OFICIAL|0.6529|0.6578|0.6601|0.6973|0.6558|0.6662|C|ANTIOQUIA|SAN VICENTE|Rural|6.333056|-75.293611|Estrato 2|0|Primaria incompleta|Primaria incompleta|N|ACADEMICO|0.28762261972727066|5
326|205674000350|I.E.R. SANTA RITA|ANTIOQUIA|A|MI|64|OFICIAL|0.6325|0.6424|0.6565|0.6773|0.6379|0.6511|C|ANTIOQUIA|SAN VICENTE|Rural|6.286389|-75.37944399999999|Estrato 2|1|Primaria completa|Primaria incompleta|N|ACADEMICO|0.2283175702523736|5
327|205001018745|INST EDUC EL LIMONAR|ANTIOQUIA|A|MI|95|OFICIAL|0.6385|0.6558|0.6555|0.6965|0.63|0.6591|C|ANTIOQUIA|MEDELLIN|Rural|6.172901|-75.646684|Estrato 2|0|Secundaria (Bachillerato) completa|Primaria completa|N|ACADEMICO|0.3147428241798551|5
328|205837003483|I.E. DE DESARROLLO RURAL DE TURBO|ANTIOQUIA|A|MI|47|OFICIAL|0.5969|0.5720000000000001|0.5684|0.6249|0.5686|0.5889|D|ANTIOQUIA|TURBO|Rural|8.08414|-76.708086|Estrato 1|0|Secundaria (Bachillerato) incompleta|Secundaria (Bachillerato) completa|N|TECNICO/ACADEMICO|0.16746526157617941|0
329|305001004871|COL PABLO VI|ANTIOQUIA|A|MI|219|NO OFICIAL|0.7032|0.6928|0.7057|0.7408|0.6964|0.7095|B|ANTIOQUIA|MEDELLIN|Urbano|6.26380708900007|-75.5474923749999|Estrato 2|0|Secundaria (Bachillerato) completa|Secundaria (Bachillerato) completa|N|ACADEMICO|0.5758732777144757|5
330|205483000236|I. E. PUERTO VENUS|ANTIOQUIA|A|MI|34|OFICIAL|0.6045|0.6425|0.6186|0.6675|0.5684|0.6283|C|ANTIOQUIA|NARINO|Rural|5.527144285|-75.19555713|Estrato 2|1|Secundaria (Bachillerato) incompleta|Primaria completa|N|ACADEMICO|0.12965950316647473|5
331|205086000092|I. E. R. CARLOS GONZALEZ|ANTIOQUIA|A|MI|67|OFICIAL|0.6985|0.7019|0.6679999999999999|0.6963|0.6557|0.6884|B|ANTIOQUIA|BELMIRA|Rural|6.520556|-75.603611|Estrato 1|0|Secundaria (Bachillerato) incompleta|Primaria incompleta|N|ACADEMICO|0.24376826472706137|0
332|205642000170|I. E. R. ABELARDO OCHOA|ANTIOQUIA|A|MI|53|OFICIAL|0.6375|0.6407|0.6339|0.6732|0.6304|0.6451|C|ANTIOQUIA|SALGAR|Rural|6.02861198|-75.98398187|Estrato 1|0|Primaria incompleta|Primaria incompleta|N|ACADEMICO|0.19395185201281875|0
333|105001007889|INST EDUC JUVENIL NUEVO FUTURO|ANTIOQUIA|A|MI|125|OFICIAL|0.6508|0.675|0.6843|0.7187|0.6965|0.6833|B|ANTIOQUIA|MEDELLIN|Urbano|6.30611565954891|-75.57758241171791|Estrato 2|0|Secundaria (Bachillerato) completa|Primaria incompleta|N|ACADEMICO|0.3924434905672973|5
334|105001001155|INST EDUC SAN JUAN BAUTISTA DE LA SALLE|ANTIOQUIA|A|MI|210|OFICIAL|0.6607|0.6686|0.6565|0.7112|0.6617|0.6733|B|ANTIOQUIA|MEDELLIN|Urbano|6.28459121500003|-75.549511378|Estrato 2|0|Secundaria (Bachillerato) completa|Secundaria (Bachillerato) completa|N|TECNICO/ACADEMICO|0.5471288525902387|3
335|105001011886|INST EDUC AMERICA|ANTIOQUIA|A|MI|176|OFICIAL|0.6299|0.6505|0.6358|0.6903|0.649|0.6514|C|ANTIOQUIA|MEDELLIN|Urbano|6.24619281900004|-75.615378882|Estrato 2|0|Secundaria (Bachillerato) completa|Primaria incompleta|N|ACADEMICO|0.48277934413305057|5
336|105088002993|IE ALBERTO DIAZ MUNOZ|ANTIOQUIA|A|MI|179|OFICIAL|0.6917|0.6783|0.6751|0.7351|0.6625|0.6925|B|ANTIOQUIA|BELLO|Urbano|6.313163294|-75.58369045|Estrato 1|0|Secundaria (Bachillerato) completa|Primaria incompleta|N|ACADEMICO|0.5030829770382594|0
337|105088002993|IE ALBERTO DIAZ MUNOZ|ANTIOQUIA|A|MI|118|OFICIAL|0.5305|0.5296|0.5439|0.5939|0.5392|0.5487|D|ANTIOQUIA|BELLO|Urbano|6.313163294|-75.58369045|Estrato 1|0|Secundaria (Bachillerato) completa|Primaria incompleta|N|ACADEMICO|0.3392925208841018|0
338|105088002691|IE ATANASIO GIRARDOT|ANTIOQUIA|A|MI|316|OFICIAL|0.6804|0.6606|0.6718|0.7227|0.6891|0.6843|B|ANTIOQUIA|BELLO|Urbano|6.3140670138|-75.56994216|Estrato 3|0|Secundaria (Bachillerato) completa|Secundaria (Bachillerato) completa|N|TECNICO/ACADEMICO|0.6890784759922851|1
339|105001001473|INST EDUC MANUELA BELTRAN|ANTIOQUIA|A|MI|125|OFICIAL|0.6289|0.6298|0.615|0.6802|0.6285|0.6377|C|ANTIOQUIA|MEDELLIN|Urbano|6.2663207260000595|-75.548810491|Estrato 2|0|Secundaria (Bachillerato) completa|Secundaria (Bachillerato) completa|N|ACADEMICO|0.3792886325012923|5
340|105001003123|I.E. FATIMA NUTIBARA|ANTIOQUIA|A|MI|138|OFICIAL|0.7348|0.71|0.6993|0.7511|0.7048|0.7223|A|ANTIOQUIA|MEDELLIN|Urbano|6.2366963600000505|-75.582982231|Estrato 3|0|Secundaria (Bachillerato) completa|Secundaria (Bachillerato) completa|N|TECNICO/ACADEMICO|0.4326966703270047|1
341|205138000088|I. E. R. SAN PASCUAL|ANTIOQUIA|A|MI|37|OFICIAL|0.6334|0.6365|0.6459999999999999|0.6937|0.5604|0.6453|C|ANTIOQUIA|CANASGORDAS|Rural|6.871252126|-76.03445391|Estrato 1|0|Primaria completa|Primaria incompleta|N|TECNICO/ACADEMICO|0.14169576102227555|0
342|105480000010|I. E. MUTATA|ANTIOQUIA|A|MI|114|OFICIAL|0.6509|0.6442|0.6587|0.6905|0.6144|0.6575|C|ANTIOQUIA|MUTATA|Urbano|7.2423690810000005|-76.43687536|Estrato 1|0|Primaria incompleta|Ninguno|N|TECNICO/ACADEMICO|0.3602664863606031|0
343|105001010588|INST EDUC FE Y ALEGRIA LA CIMA|ANTIOQUIA|A|MI|357|OFICIAL|0.7083|0.6932|0.6988|0.7376|0.6751|0.7068|B|ANTIOQUIA|MEDELLIN|Urbano|6.2813614926992205|-75.54763126482041|Estrato 2|0|Secundaria (Bachillerato) completa|Secundaria (Bachillerato) incompleta|N|TECNICO/ACADEMICO|0.7425825992872166|3
344|105001001236|INST EDUC MONTECARLO GUILLERMO GAVIRIA CORREA|ANTIOQUIA|A|MI|159|OFICIAL|0.677|0.6623|0.6436|0.7002|0.6669|0.6705|B|ANTIOQUIA|MEDELLIN|Urbano|6.276799285000041|-75.546117491|Estrato 2|0|Secundaria (Bachillerato) completa|Secundaria (Bachillerato) completa|N|TECNICO/ACADEMICO|0.45851275924822227|3
345|205873000067|I. E. SAN ANTONIO DE PADUA|ANTIOQUIA|A|MI|59|OFICIAL|0.5574|0.5613|0.5112|0.5705|0.5684|0.5515|D|ANTIOQUIA|VIGIA DEL FUERTE|Rural|6.286971599999999|-76.76254686|Estrato 3|0|Primaria completa|Primaria completa|N|ACADEMICO|0.19734658542457473|2
346|105376000113|I. E. MONSENOR ALFONSO URIBE JARAMILLO|ANTIOQUIA|A|MI|268|OFICIAL|0.7317|0.7322|0.7052|0.7362|0.713|0.7253|A|ANTIOQUIA|LA CEJA|Urbano|6.0297220000000005|-75.427778|Estrato 3|0|Secundaria (Bachillerato) completa|Primaria incompleta|N|ACADEMICO|0.6521501284196851|2
347|105001007218|INST EDUC MARIA DE LOS ANGELES CANO MARQUEZ|ANTIOQUIA|A|MI|316|OFICIAL|0.6988|0.6998|0.6749|0.7303|0.6772|0.6991|B|ANTIOQUIA|MEDELLIN|Urbano|6.29226449800007|-75.544490574|Estrato 2|0|Secundaria (Bachillerato) completa|Secundaria (Bachillerato) incompleta|N|TECNICO/ACADEMICO|0.6965697462149345|3
348|105001000001|INST EDUC JOSE MARIA VELAZ|ANTIOQUIA|A|MI|103|OFICIAL|0.7081|0.7102|0.7095|0.74|0.6709999999999999|0.7134|B|ANTIOQUIA|MEDELLIN|Urbano|6.303908942000019|-75.550298341|Estrato 2|0|Secundaria (Bachillerato) completa|Primaria incompleta|N|ACADEMICO|0.3482081447054593|5
349|105001000043|INST EDUC BARRIO SANTA CRUZ|ANTIOQUIA|A|MI|129|OFICIAL|0.6053|0.6293|0.6141|0.6774|0.6091|0.6298|C|ANTIOQUIA|MEDELLIN|Urbano|6.29221911800005|-75.5503797219999|Estrato 2|0|Secundaria (Bachillerato) completa|Primaria incompleta|N|ACADEMICO|0.3855150444217239|5
350|105001001279|INST EDUC CIRO MENDIA|ANTIOQUIA|A|MI|160|OFICIAL|0.6813|0.6718|0.6935|0.7239|0.6629999999999999|0.6904|B|ANTIOQUIA|MEDELLIN|Urbano|6.290351895000071|-75.555509899|Estrato 2|0|Secundaria (Bachillerato) completa|Secundaria (Bachillerato) completa|N|ACADEMICO|0.46721028937090914|5
351|105001014397|INST EDUC LUIS LOPEZ DE MESA|ANTIOQUIA|A|MI|265|OFICIAL|0.6920000000000001|0.6868|0.6726|0.7289|0.6859|0.6944|B|ANTIOQUIA|MEDELLIN|Urbano|6.284227173000031|-75.5807119409999|Estrato 2|0|Secundaria (Bachillerato) completa|Secundaria (Bachillerato) completa|N|TECNICO/ACADEMICO|0.6339412535516433|3
352|205318000167|I. E. ROMERAL|ANTIOQUIA|A|MI|119|OFICIAL|0.6859999999999999|0.7061|0.6715|0.7186|0.6736|0.6939|B|ANTIOQUIA|GUARNE|Rural|6.305355362999999|-75.45768552|Estrato 2|0|Secundaria (Bachillerato) completa|Primaria completa|N|ACADEMICO|0.3818042774832554|5
353|105001016420|INST EDUC TRICENTENARIO|ANTIOQUIA|A|MI|186|OFICIAL|0.6774|0.6738|0.6828|0.7161|0.6786|0.6868|B|ANTIOQUIA|MEDELLIN|Urbano|6.29196691200002|-75.564843664|Estrato 2|0|Secundaria (Bachillerato) completa|Secundaria (Bachillerato) completa|N|ACADEMICO|0.5132087750772025|5
354|205172000062|I. E. AGRICOLA DE URABA|ANTIOQUIA|A|MI|387|OFICIAL|0.6071|0.6184|0.6051|0.6577|0.598|0.6202|C|ANTIOQUIA|CHIGORODO|Rural|7.652778|-76.656389|Estrato 2|0|Primaria incompleta|Primaria incompleta|N|TECNICO|0.7220508942569532|3
355|305001018839|INST EDUC MADRE LAURA|ANTIOQUIA|A|MI|198|OFICIAL|0.7779|0.7587|0.7559|0.7861|0.7476|0.7679|A|ANTIOQUIA|MEDELLIN|Urbano|6.23422948252|-75.5506855907|Estrato 3|0|Secundaria (Bachillerato) completa|Tecnica o tecnologica completa|N|TECNICO/ACADEMICO|0.5650864920187457|1
356|105660000271|I. E. SAN LUIS|ANTIOQUIA|A|MI|187|OFICIAL|0.7143|0.7063|0.6997|0.7392|0.6742|0.7117|B|ANTIOQUIA|SAN LUIS|Urbano|6.042838164|-74.99056154|Estrato 2|0|Secundaria (Bachillerato) completa|Primaria incompleta|N|ACADEMICO|0.5243272029807464|5
357|105660000271|I. E. SAN LUIS|ANTIOQUIA|A|MI|136|OFICIAL|0.5455|0.5819|0.5713|0.6122|0.569|0.5771|D|ANTIOQUIA|SAN LUIS|Urbano|6.042838164|-74.99056154|Estrato 2|0|Secundaria (Bachillerato) completa|Primaria incompleta|N|ACADEMICO|0.3838995987745605|5
358|105697000069|I. E. PBRO. LUIS RODOLFO GOMEZ|ANTIOQUIA|A|MI|302|OFICIAL|0.7079|0.6928|0.7021|0.7436|0.7105|0.7115|B|ANTIOQUIA|SANTUARIO|Urbano|6.135716347200001|-75.27584744|Estrato 2|0|Secundaria (Bachillerato) completa|Primaria incompleta|N|TECNICO/ACADEMICO|0.6871161182076828|3
359|205686000584|I. E. R. PORFIRIO BARBA JACOB|ANTIOQUIA|A|MI|54|OFICIAL|0.6412|0.6703|0.6663|0.7021|0.6248|0.6665|C|ANTIOQUIA|SANTA ROSA DE OSOS|Rural|6.597282723999999|-75.24836996|Estrato 2|0|Primaria incompleta|Primaria completa|N|ACADEMICO|0.20025550717067042|5
360|105360001934|INSTITUCION EDUCATIVA MARCELIANA SALDARRIAGA|ANTIOQUIA|A|MI|268|OFICIAL|0.7082|0.7034|0.7322|0.7619|0.7214|0.726|A|ANTIOQUIA|ITAGUI|Urbano|6.184404118200001|-75.59989588|Estrato 2|0|Secundaria (Bachillerato) completa|Secundaria (Bachillerato) completa|N|TECNICO/ACADEMICO|0.6524756533199108|3
