Cod_Col;Nombre;Latitud;Longitud;Departamento;Municipio;Sector;Estrato;Naturaleza;Calendario;Genero;Categoria;Total;Matematica;Ciencias_Naturales;Ciencias_Sociales;Lectura_critica;Ingles;Cluster
105001000001;INST EDUC JOSE MARIA VELAZ;6.303908942;-75.55029834;ANTIOQUIA;MEDELLÍN;Urbano;Estrato 2;OFICIAL;A;MIXTO;B;0.7134;0.7081;0.7102;0.7095;0.74;0.671;0
105001000043;INST EDUC BARRIO SANTA CRUZ;6.292219118;-75.55037972;ANTIOQUIA;MEDELLÍN;Urbano;Estrato 2;OFICIAL;A;MIXTO;C;0.6298;0.6053;0.6293;0.6141;0.6774;0.6091;0
105001000108;INST EDUC CEFA;6.246276856;-75.56176657;ANTIOQUIA;MEDELLÍN;Urbano;Estrato 2;OFICIAL;A;FEMENINO;A;0.7491;0.7424;0.7417;0.7404;0.7794;0.7265;1
105001000132;INST EDUC JOSE MARIA BERNAL;6.22032997;-75.59362723;ANTIOQUIA;MEDELLÍN;Urbano;Estrato 3;OFICIAL;A;MIXTO;A;0.763;0.7514;0.7523;0.7652;0.7854;0.7561;4
105001000141;INST EDUC CAMILO TORRES RESTREPO;6.276318786;-75.557333;ANTIOQUIA;MEDELLÍN;Urbano;Estrato 3;OFICIAL;A;MIXTO;C;0.667;0.6516;0.6603;0.6479;0.7096;0.6626;4
105001000175;INST EDUC GABRIEL RESTREPO MORENO;6.276818567;-75.5484617;ANTIOQUIA;MEDELLÍN;Urbano;Estrato 2;OFICIAL;A;MIXTO;C;0.6538;0.6409;0.6467;0.6343;0.6981;0.6391;1
105001000205;INST EDUC SAN AGUSTIN;6.279873605;-75.56303665;ANTIOQUIA;MEDELLÍN;Urbano;Estrato 2;OFICIAL;A;MIXTO;B;0.692;0.7032;0.6808;0.6722;0.7108;0.6946;0
105001000256;INST EDUC HECTOR ABAD GOMEZ;6.245699243;-75.56035457;ANTIOQUIA;MEDELLÍN;Urbano;Estrato 2;OFICIAL;A;MIXTO;B;0.6885;0.6795;0.6814;0.678;0.7213;0.6694;1
105001000353;INST EDUC JUAN DE LA CRUZ POSADA;6.253825721;-75.55451926;ANTIOQUIA;MEDELLÍN;Urbano;Estrato 3;OFICIAL;A;MIXTO;B;0.6953;0.6921;0.6864;0.6805;0.7212;0.6981;4
105001000396;INST EDUC JOSE ACEVEDO Y GOMEZ;6.202110993;-75.5892116;ANTIOQUIA;MEDELLÍN;Urbano;Estrato 2;OFICIAL;A;MIXTO;C;0.665;0.6508;0.6534;0.6552;0.6963;0.6773;1
105001000418;INST EDUC LA MILAGROSA;6.235157417;-75.5544601;ANTIOQUIA;MEDELLÍN;Urbano;Estrato 3;OFICIAL;A;MIXTO;B;0.6841;0.6808;0.681;0.6683;0.7079;0.6801;3
105001000485;INST EDUC LA SALLE DE CAMPOAMOR;6.212623942;-75.5877871;ANTIOQUIA;MEDELLÍN;Urbano;Estrato 3;OFICIAL;A;MIXTO;A;0.7561;0.7638;0.7515;0.733;0.7749;0.7592;3
105001000621;INST EDUC ESCUELA NORMAL SUPERIOR DE MEDELLIN;6.25357937;-75.54862004;ANTIOQUIA;MEDELLÍN;Urbano;Estrato 2;OFICIAL;A;MIXTO;A;0.7582;0.7651;0.7527;0.7465;0.7756;0.7363;1
105001000795;INST EDUC ALFREDO COCK ARANGO;6.296667308;-75.57362381;ANTIOQUIA;MEDELLÍN;Urbano;Estrato 3;OFICIAL;A;MIXTO;B;0.6897;0.6694;0.6764;0.6842;0.7255;0.6988;3
105001000809;INST EDUC PERPETUO SOCORRO;6.245994669;-75.61820001;ANTIOQUIA;MEDELLÍN;Urbano;Estrato 2;OFICIAL;A;MIXTO;B;0.7043;0.6963;0.7026;0.7084;0.7222;0.6678;1
105001000841;INST EDUC JESUS MARIA - EL ROSAL;6.291317415;-75.57483334;ANTIOQUIA;MEDELLÍN;Urbano;Estrato 3;OFICIAL;A;FEMENINO;A+;0.7811;0.7798;0.779;0.7731;0.7976;0.7666;3
105001000868;INST EDUC REPUBLICA DE VENEZUELA;6.235307255;-75.61437692;ANTIOQUIA;MEDELLÍN;Urbano;Estrato 2;OFICIAL;A;MIXTO;B;0.6927;0.6925;0.692;0.6642;0.732;0.6631;0
105001000876;INST EDUC JAVIERA LONDOÑO-SEVILLA;6.267787787;-75.56515715;ANTIOQUIA;MEDELLÍN;Urbano;Estrato 3;OFICIAL;A;MIXTO;A;0.7208;0.7123;0.7123;0.7089;0.7469;0.7288;4
105001000931;INST EDUC DIEGO ECHAVARRIA MISAS;6.307992524;-75.56871783;ANTIOQUIA;MEDELLÍN;Urbano;Estrato 3;OFICIAL;A;MIXTO;A;0.7281;0.7176;0.72;0.7235;0.7598;0.703;3
105001000981;INST EDUC GILBERTO ALZATE AVENDA?O;6.283627426;-75.56176404;ANTIOQUIA;MEDELLÍN;Urbano;Estrato 2;OFICIAL;A;MIXTO;B;0.7063;0.7086;0.6894;0.6923;0.7382;0.6963;1
105001000990;INST EDUC GONZALO RESTREPO JARAMILLO;6.239567246;-75.54883779;ANTIOQUIA;MEDELLÍN;Urbano;Estrato 2;OFICIAL;A;FEMENINO;C;0.6676;0.6407;0.6504;0.6592;0.723;0.6588;1
105001001023;INST EDUC ANTONIO RICAURTE;6.21126592;-75.60344407;ANTIOQUIA;MEDELLÍN;Urbano;Estrato 2;OFICIAL;A;MIXTO;B;0.6858;0.6742;0.6743;0.6719;0.7208;0.6914;0
105001001121;INST EDUC JOSE ROBERTO VASQUEZ;6.268969664;-75.55019914;ANTIOQUIA;MEDELLÍN;Urbano;Estrato 2;OFICIAL;A;MIXTO;B;0.6764;0.6671;0.6663;0.6584;0.7164;0.6691;1
105001001155;INST EDUC SAN JUAN BAUTISTA DE LA SALLE;6.284591215;-75.54951138;ANTIOQUIA;MEDELLÍN;Urbano;Estrato 2;OFICIAL;A;MIXTO;B;0.6733;0.6607;0.6686;0.6565;0.7112;0.6617;1
105001001163;INSTITUCION EDUCATIVA LA ASUNCION;6.291022819;-75.55433427;ANTIOQUIA;MEDELLÍN;Urbano;Estrato 2;OFICIAL;A;MIXTO;A;0.7285;0.7211;0.7061;0.7352;0.7541;0.7207;0
105001001198;INST EDUC AURES;6.288747018;-75.59417843;ANTIOQUIA;MEDELLÍN;Urbano;Estrato 2;OFICIAL;A;MIXTO;B;0.6885;0.6977;0.6728;0.6641;0.7201;0.6864;1
105001001236;INST EDUC MONTECARLO GUILLERMO GAVIRIA CORREA;6.276799285;-75.54611749;ANTIOQUIA;MEDELLÍN;Urbano;Estrato 2;OFICIAL;A;MIXTO;B;0.6705;0.677;0.6623;0.6436;0.7002;0.6669;1
105001001252;INST EDUC CRISTOBAL COLON;6.25041172;-75.61334359;ANTIOQUIA;MEDELLÍN;Urbano;Estrato 2;OFICIAL;A;MIXTO;A;0.7263;0.7183;0.7078;0.7174;0.7629;0.7222;0
105001001279;INST EDUC CIRO MENDIA;6.290351895;-75.5555099;ANTIOQUIA;MEDELLÍN;Urbano;Estrato 2;OFICIAL;A;MIXTO;B;0.6904;0.6813;0.6718;0.6935;0.7239;0.663;0
105001001317;INST EDUC MADRE MARIA MAZARELLO;6.241381382;-75.55607829;ANTIOQUIA;MEDELLÍN;Urbano;Estrato 3;OFICIAL;A;FEMENINO;A;0.7562;0.7364;0.7427;0.7589;0.7825;0.7689;4
105001001473;INST EDUC MANUELA BELTRAN;6.266320726;-75.54881049;ANTIOQUIA;MEDELLÍN;Urbano;Estrato 2;OFICIAL;A;MIXTO;C;0.6377;0.6289;0.6298;0.615;0.6802;0.6285;0
105001001490;INST EDUC LOLA GONZALEZ;6.257368083;-75.61115843;ANTIOQUIA;MEDELLÍN;Urbano;Estrato 2;OFICIAL;A;MIXTO;A;0.7403;0.7247;0.7396;0.7326;0.7684;0.7273;1
105001001562;INST EDUC JAVIERA LONDO?O;6.248347486;-75.5599703;ANTIOQUIA;MEDELLÍN;Urbano;Estrato 3;OFICIAL;A;MIXTO;A;0.7284;0.6994;0.7256;0.7212;0.7613;0.7464;3
105001001635;INST EDUC YERMO Y PARRES;6.229410502;-75.59786374;ANTIOQUIA;MEDELLÍN;Urbano;Estrato 3;OFICIAL;A;MIXTO;A;0.7604;0.7609;0.7511;0.751;0.7797;0.7569;3
105001001651;INST EDUC JOSE CELESTINO MUTIS;6.25882916;-75.55693695;ANTIOQUIA;MEDELLÍN;Urbano;Estrato 3;OFICIAL;A;MIXTO;B;0.6959;0.6909;0.6835;0.677;0.7299;0.7034;4
105001001660;INST EDUC JOSE ANTONIO GALAN;6.28502576;-75.5522594;ANTIOQUIA;MEDELLÍN;Urbano;Estrato 2;OFICIAL;A;MIXTO;B;0.6815;0.6905;0.6839;0.6439;0.7073;0.6828;0
105001001716;INSTITUCION EDUCATIVA SANTA CATALINA DE SIENA;6.200120895;-75.56121478;ANTIOQUIA;MEDELLÍN;Urbano;Estrato 2;OFICIAL;A;MIXTO;B;0.6853;0.6787;0.6776;0.6631;0.7188;0.6938;0
105001001791;INST EDUC MONSEÑOR GERARDO VALENCIA CANO;6.269046717;-75.58775289;ANTIOQUIA;MEDELLÍN;Urbano;Estrato 3;OFICIAL;A;MIXTO;A;0.7555;0.7512;0.7505;0.7475;0.7763;0.7444;4
105001001805;INST EDUC FE Y ALEGRIA POPULAR NRO. 1;6.302481818;-75.54474035;ANTIOQUIA;MEDELLÍN;Urbano;Estrato 2;OFICIAL;A;MIXTO;C;0.64;0.6207;0.6384;0.6283;0.6796;0.6188;1
105001001821;INST EDUC NUEVO HORIZONTE;6.298755806;-75.54603072;ANTIOQUIA;MEDELLÍN;Urbano;Estrato 2;OFICIAL;A;MIXTO;C;0.6473;0.6372;0.6384;0.6414;0.6771;0.6328;0
105001001848;INST EDUC SOR JUANA INES DE LA CRUZ;6.299969362;-75.56814738;ANTIOQUIA;MEDELLÍN;Urbano;Estrato 3;OFICIAL;A;MIXTO;A+;0.7779;0.7746;0.7599;0.7767;0.8004;0.7782;3
105001001881;I.E. CARLOS VIECO ORTIZ;6.255021536;-75.61997761;ANTIOQUIA;MEDELLÍN;Urbano;Estrato 2;OFICIAL;A;MIXTO;A;0.7316;0.7316;0.7348;0.7149;0.7504;0.716;0
105001002003;INST EDUC SAN ROBERTO BELARMINO;6.235453054;-75.60657975;ANTIOQUIA;MEDELLÍN;Urbano;Estrato 3;OFICIAL;A;MIXTO;B;0.6992;0.6803;0.6828;0.6996;0.7308;0.7092;4
105001002011;INST EDUC FEDERICO OZANAM;6.240585779;-75.55804126;ANTIOQUIA;MEDELLÍN;Urbano;Estrato 3;OFICIAL;A;MIXTO;A;0.7498;0.7504;0.7312;0.739;0.7725;0.7677;3
105001002020;INST EDUC RAFAEL URIBE URIBE;6.249437408;-75.60311665;ANTIOQUIA;MEDELLÍN;Urbano;Estrato 3;OFICIAL;A;MIXTO;A;0.7341;0.7127;0.723;0.7378;0.7658;0.7261;4
105001002038;INST EDUC JOSE EUSEBIO CARO;6.285512929;-75.55880477;ANTIOQUIA;MEDELLÍN;Urbano;Estrato 3;OFICIAL;A;MIXTO;B;0.7054;0.7032;0.6868;0.6919;0.7436;0.6935;4
105001002071;I.E. BENJAMIN HERRERA;6.226634556;-75.57960646;ANTIOQUIA;MEDELLÍN;Urbano;Estrato 3;OFICIAL;A;MIXTO;B;0.68;0.6999;0.6723;0.6439;0.7071;0.6707;3
105001002101;INSTITUCIÓN EDUCATIVA JUAN DE DIOS COCK;6.280894339;-75.5534284;ANTIOQUIA;MEDELLÍN;Urbano;Estrato 2;OFICIAL;A;MIXTO;B;0.6949;0.6952;0.6846;0.6728;0.7302;0.6854;0
105001002119;I.E. MARCO FIDEL SUAREZ;6.257482635;-75.58630576;ANTIOQUIA;MEDELLÍN;Urbano;Estrato 2;OFICIAL;A;MIXTO;B;0.7182;0.7167;0.7141;0.7058;0.7443;0.6944;1
105001002135;INST EDUC RAMON MUNERA LOPERA;6.269574583;-75.54316237;ANTIOQUIA;MEDELLÍN;Urbano;Estrato 1;OFICIAL;A;MIXTO;B;0.7048;0.6772;0.6896;0.7136;0.7459;0.6832;2
105001002305;INST EDUC MARISCAL ROBLEDO;6.275190865;-75.59590176;ANTIOQUIA;MEDELLÍN;Urbano;Estrato 3;OFICIAL;A;MIXTO;B;0.685;0.6621;0.6623;0.6888;0.7301;0.6749;4
105001002348;INST EDUC FE Y ALEGRIA SANTO DOMINGO SAVIO;6.29882306;-75.54152496;ANTIOQUIA;MEDELLÍN;Urbano;Estrato 1;OFICIAL;A;MIXTO;C;0.6435;0.6415;0.658;0.6222;0.6718;0.5855;5
105001002356;INST EDUC GABRIEL GARCIA MARQUEZ;6.236676574;-75.53363696;ANTIOQUIA;MEDELLÍN;Urbano;Estrato 1;OFICIAL;A;MIXTO;C;0.6481;0.6304;0.6388;0.6343;0.6866;0.6553;5
105001002461;INST EDUC LUCRECIO JARAMILLO VELEZ;6.246233977;-75.59949244;ANTIOQUIA;MEDELLÍN;Urbano;Estrato 3;OFICIAL;A;MIXTO;A+;0.7861;0.7905;0.7736;0.7805;0.7958;0.7977;4
105001002470;INST EDUC SAN VICENTE DE PAUL;6.278704741;-75.57776828;ANTIOQUIA;MEDELLÍN;Urbano;Estrato 3;OFICIAL;A;MIXTO;B;0.7089;0.7047;0.7016;0.6968;0.7343;0.7036;4
105001002488;INST EDUC PEDRO LUIS VILLA;6.261761867;-75.55283654;ANTIOQUIA;MEDELLÍN;Urbano;Estrato 3;OFICIAL;A;MIXTO;B;0.6896;0.6825;0.6854;0.6823;0.7153;0.6688;3
105001002496;INST EDUC CRISTO REY;6.205327697;-75.58148964;ANTIOQUIA;MEDELLÍN;Urbano;Estrato 3;OFICIAL;A;MIXTO;A;0.7275;0.7285;0.7158;0.7183;0.7513;0.7158;3
105001002526;INST EDUC SAMUEL BARRIENTOS RESTREPO;6.254265924;-75.61151436;ANTIOQUIA;MEDELLÍN;Urbano;Estrato 2;OFICIAL;A;MIXTO;B;0.6845;0.6683;0.6869;0.6782;0.7109;0.6651;1
105001002780;INST EDUC SAN FRANCISCO DE ASIS;6.238610582;-75.53958705;ANTIOQUIA;MEDELLÍN;Urbano;Estrato 1;OFICIAL;A;MIXTO;C;0.6449;0.6286;0.6373;0.6339;0.6801;0.6434;5
105001002798;INST EDUC MATER DEI;6.247537821;-75.58575735;ANTIOQUIA;MEDELLÍN;Urbano;Estrato 4;OFICIAL;A;MIXTO;A;0.7647;0.7499;0.7493;0.772;0.7911;0.7546;7
105001002895;INST EDUC FRANCISCO ANTONIO ZEA;6.243822273;-75.60372154;ANTIOQUIA;MEDELLÍN;Urbano;Estrato 3;OFICIAL;A;MIXTO;A;0.734;0.7325;0.7281;0.7196;0.7559;0.7338;4
105001002976;INST EDUC LA PIEDAD;6.269375359;-75.5969029;ANTIOQUIA;MEDELLÍN;Urbano;Estrato 2;OFICIAL;A;MIXTO;C;0.6698;0.6813;0.6806;0.6273;0.6933;0.6598;0
105001003123;I.E. FATIMA NUTIBARA;6.23669636;-75.58298223;ANTIOQUIA;MEDELLÍN;Urbano;Estrato 3;OFICIAL;A;MIXTO;A;0.7223;0.7348;0.71;0.6993;0.7511;0.7048;3
105001003131;INST EDUC REPUBLICA DE HONDURAS;6.290774354;-75.55954079;ANTIOQUIA;MEDELLÍN;Urbano;Estrato 2;OFICIAL;A;MIXTO;B;0.6981;0.6958;0.7046;0.7011;0.7144;0.6267;0
105001003221;INSTITUCION EDUCATIVA MANUEL JOSE CAYZEDO;6.241669334;-75.55209633;ANTIOQUIA;MEDELLÍN;Urbano;Estrato 3;OFICIAL;A;MIXTO;B;0.6992;0.6806;0.6725;0.7113;0.736;0.6882;3
105001003271;INSTITUCION EDUCATIVA OCTAVIO HARRY - JACQUELINE KENNEDY;6.219077466;-75.59630123;ANTIOQUIA;MEDELLÍN;Urbano;Estrato 3;OFICIAL;A;MIXTO;A;0.7364;0.7337;0.7327;0.7252;0.7581;0.7246;3
105001003280;INST EDUC MARIA MONTESSORI;6.286980349;-75.57516683;ANTIOQUIA;MEDELLÍN;Urbano;Estrato 3;OFICIAL;A;MIXTO;B;0.678;0.6822;0.6754;0.6481;0.7055;0.6803;3
105001003298;INST EDUC LORENZA VILLEGAS DE SANTOS;6.280223096;-75.56075406;ANTIOQUIA;MEDELLÍN;Urbano;Estrato 2;OFICIAL;A;FEMENINO;B;0.7;0.695;0.6865;0.6847;0.7423;0.6741;1
105001003387;INST EDUC SANTA ROSA DE LIMA;6.255500952;-75.59960289;ANTIOQUIA;MEDELLÍN;Urbano;Estrato 2;OFICIAL;A;MIXTO;C;0.6586;0.6502;0.6437;0.6499;0.697;0.6393;0
105001003441;INS TEC INDUSTRIAL PASCUAL BRAVO;6.272991518;-75.58541688;ANTIOQUIA;MEDELLÍN;Urbano;Estrato 3;OFICIAL;A;MIXTO;A;0.7697;0.7757;0.7649;0.7621;0.7795;0.7597;3
105001003450;INST EDUC ROSALIA SUAREZ;6.232680829;-75.59739576;ANTIOQUIA;MEDELLÍN;Urbano;Estrato 3;OFICIAL;A;MIXTO;A;0.7608;0.7522;0.7471;0.7631;0.7847;0.7497;4
105001004472;INST EDUC LA PRESENTACION;6.213827399;-75.58494732;ANTIOQUIA;MEDELLÍN;Urbano;Estrato 3;OFICIAL;A;FEMENINO;A+;0.7882;0.7835;0.7774;0.7835;0.8033;0.8045;4
105001004791;INST EDUC SANTO ANGEL;6.207807023;-75.58766494;ANTIOQUIA;MEDELLÍN;Urbano;Estrato 3;OFICIAL;A;FEMENINO;A+;0.7819;0.7871;0.7687;0.7636;0.7952;0.8213;4
105001005291;INST EDUC CAMPO VALDES;6.275479557;-75.55575122;ANTIOQUIA;MEDELLÍN;Urbano;Estrato 3;OFICIAL;A;MIXTO;A;0.7457;0.7485;0.7276;0.7416;0.7757;0.7138;4
105001005339;INST EDUC MONSE?OR FRANCISCO CRISTOBAL TORO;6.282563385;-75.56054797;ANTIOQUIA;MEDELLÍN;Urbano;Estrato 2;OFICIAL;A;MIXTO;C;0.6652;0.653;0.6477;0.6547;0.7066;0.6621;1
105001005347;INST EDUC TULIO OSPINA;6.258984818;-75.56584281;ANTIOQUIA;MEDELLÍN;Urbano;Estrato 3;OFICIAL;A;MIXTO;A;0.7317;0.7105;0.7176;0.7319;0.7667;0.7318;3
105001005380;I.E. MANUEL URIBE ÁNGEL;6.298158526;-75.55383007;ANTIOQUIA;MEDELLÍN;Urbano;Estrato 2;OFICIAL;A;MIXTO;C;0.6693;0.6669;0.6586;0.6462;0.7117;0.6513;0
105001005410;INST EDUC JUAN DE DIOS CARVAJAL;6.255645687;-75.55106203;ANTIOQUIA;MEDELLÍN;Urbano;Estrato 3;OFICIAL;A;MIXTO;B;0.6845;0.6684;0.6729;0.6743;0.7234;0.6812;3
105001005495;INST EDUC REPUBLICA DE URUGUAY;6.283846207;-75.57724671;ANTIOQUIA;MEDELLÍN;Urbano;Estrato 3;OFICIAL;A;MIXTO;B;0.6979;0.6913;0.6971;0.6768;0.7303;0.6858;3
105001005525;INST EDUC ENRIQUE OLAYA HERRERA;6.266584318;-75.54515992;ANTIOQUIA;MEDELLÍN;Urbano;Estrato 2;OFICIAL;A;MIXTO;C;0.657;0.645;0.6394;0.6433;0.7055;0.6409;0
105001005878;INST EDUC FRANCISCO MIRANDA;6.274179642;-75.56355753;ANTIOQUIA;MEDELLÍN;Urbano;Estrato 2;OFICIAL;A;MIXTO;B;0.6971;0.6982;0.6861;0.6718;0.7318;0.6988;0
105001006068;INST EDUC DINAMARCA;6.282612707;-75.57292636;ANTIOQUIA;MEDELLÍN;Urbano;Estrato 3;OFICIAL;A;MIXTO;A;0.7206;0.7242;0.7019;0.7117;0.7562;0.6861;4
105001006092;INST EDUC JULIO CESAR GARCIA;6.306774105;-75.56419154;ANTIOQUIA;MEDELLÍN;Urbano;Estrato 3;OFICIAL;A;MIXTO;A;0.7251;0.7277;0.7181;0.7087;0.7489;0.717;3
105001006181;INST EDUC PEDRO OCTAVIO AMADO;6.221679171;-75.61067744;ANTIOQUIA;MEDELLÍN;Urbano;Estrato 2;OFICIAL;A;MIXTO;C;0.6635;0.6614;0.6629;0.6411;0.6943;0.6469;1
105001006246;INST EDUC JORGE ROBLEDO;6.277482623;-75.59685687;ANTIOQUIA;MEDELLÍN;Urbano;Estrato 3;OFICIAL;A;MIXTO;B;0.6943;0.6897;0.6822;0.6802;0.7358;0.6626;4
105001006483;INST EDUC RODRIGO CORREA PALACIO;6.297498183;-75.56856021;ANTIOQUIA;MEDELLÍN;Urbano;Estrato 3;OFICIAL;A;MIXTO;C;0.6595;0.6479;0.6568;0.6508;0.6839;0.6551;3
105001006556;INST EDUC JUAN XXIII;6.262010359;-75.61256121;ANTIOQUIA;MEDELLÍN;Urbano;Estrato 2;OFICIAL;A;MIXTO;C;0.6643;0.6537;0.6604;0.6426;0.6993;0.6682;0
105001006718;INST EDUC ASIA IGNACIANA;6.306243754;-75.55456144;ANTIOQUIA;MEDELLÍN;Urbano;Estrato 2;OFICIAL;A;MIXTO;A;0.7326;0.7137;0.7149;0.7449;0.7597;0.724;1
105001006980;INST EDUC CONCEJO DE MEDELLIN;6.258238363;-75.60062028;ANTIOQUIA;MEDELLÍN;Urbano;Estrato 3;OFICIAL;A;MIXTO;A;0.7487;0.7477;0.7395;0.7427;0.7729;0.7241;3
105001007111;INST EDUC SEBASTIAN DE BELALCAZAR;6.297495008;-75.56294296;ANTIOQUIA;MEDELLÍN;Urbano;Estrato 3;OFICIAL;A;MIXTO;B;0.6854;0.6944;0.6515;0.6852;0.7142;0.6749;4
105001007188;INST EDUC BENEDIKTA ZUR NIEDEN;6.25325911;-75.61387139;ANTIOQUIA;MEDELLÍN;Urbano;Estrato 1;OFICIAL;A;MIXTO;B;0.685;0.6803;0.673;0.6636;0.7207;0.692;2
105001007218;INST EDUC MARIA DE LOS ANGELES CANO MARQUEZ;6.292264498;-75.54449057;ANTIOQUIA;MEDELLÍN;Urbano;Estrato 2;OFICIAL;A;MIXTO;B;0.6991;0.6988;0.6998;0.6749;0.7303;0.6772;1
105001007421;INST EDUC OCTAVIO CALDERON MEJIA;6.214782369;-75.58522611;ANTIOQUIA;MEDELLÍN;Urbano;Estrato 3;OFICIAL;A;MIXTO;A;0.7422;0.7389;0.7276;0.7372;0.761;0.7535;3
105001007439;INST EDUC PEDRO CLAVER AGUIRRE;6.29051187;-75.57125978;ANTIOQUIA;MEDELLÍN;Urbano;Estrato 3;OFICIAL;A;MIXTO;C;0.6653;0.6649;0.6545;0.6426;0.7072;0.6415;4
105001007889;INST EDUC JUVENIL NUEVO FUTURO;6.30611566;-75.57758241;ANTIOQUIA;MEDELLÍN;Urbano;Estrato 2;OFICIAL;A;MIXTO;B;0.6833;0.6508;0.675;0.6843;0.7187;0.6965;0
105001007919;COL SAGRADA FAMILIA ALDEA PABLO VI;6.288280629;-75.54194578;ANTIOQUIA;MEDELLÍN;Urbano;Estrato 1;NO OFICIAL;A;MIXTO;B;0.7092;0.6918;0.7036;0.703;0.7413;0.7007;2
105001007978;INST EDUC PABLO NERUDA;6.290634922;-75.55998158;ANTIOQUIA;MEDELLÍN;Urbano;Estrato 2;OFICIAL;A;MIXTO;C;0.6513;0.6271;0.6505;0.6394;0.6935;0.6355;0
105001008249;INST EDUC BELLO HORIZONTE;6.282169363;-75.59081368;ANTIOQUIA;MEDELLÍN;Urbano;Estrato 2;OFICIAL;A;MIXTO;B;0.6899;0.6627;0.6796;0.6907;0.7258;0.692;0
105001008389;INST EDUC LORETO-GABRIELA GOMEZ CARVAJAL;6.231625601;-75.55958388;ANTIOQUIA;MEDELLÍN;Urbano;Estrato 2;OFICIAL;A;MIXTO;C;0.6433;0.6413;0.6298;0.6141;0.6829;0.659;1
105001008486;I.E. CAPILLA DEL ROSARIO;6.205344428;-75.60207995;ANTIOQUIA;MEDELLÍN;Urbano;Estrato 2;OFICIAL;A;MIXTO;B;0.6842;0.6676;0.6624;0.6769;0.7292;0.6859;0
105001009652;INST EDUC SAN LORENZO DE ABURRA;6.272000718;-75.54917004;ANTIOQUIA;MEDELLÍN;Urbano;Estrato 2;OFICIAL;A;MIXTO;B;0.6766;0.6767;0.6665;0.6555;0.71;0.6694;1
105001009695;INST EDUC SAN JUAN BOSCO;6.276300194;-75.56127567;ANTIOQUIA;MEDELLÍN;Urbano;Estrato 3;OFICIAL;A;FEMENINO;A;0.7269;0.7174;0.7243;0.7116;0.7543;0.7263;3
105001009709;INST EDUC FELIX HENAO BOTERO;6.240595525;-75.54666127;ANTIOQUIA;MEDELLÍN;Urbano;Estrato 2;OFICIAL;A;MIXTO;B;0.6738;0.6615;0.6682;0.6526;0.7229;0.6435;1
105001009865;INST EDUC HERNAN TORO AGUDELO;6.271974573;-75.55297232;ANTIOQUIA;MEDELLÍN;Urbano;Estrato 3;OFICIAL;A;MIXTO;B;0.6979;0.6947;0.6798;0.6891;0.7301;0.692;4
105001010111;INST EDUC MAESTRO FERNANDO BOTERO;6.301619768;-75.57193329;ANTIOQUIA;MEDELLÍN;Urbano;Estrato 3;OFICIAL;A;MIXTO;B;0.688;0.6791;0.6952;0.6694;0.7182;0.6589;3
105001010367;INST EDUC SANTOS ANGELES CUSTODIOS;6.221407862;-75.58680551;ANTIOQUIA;MEDELLÍN;Urbano;Estrato 3;OFICIAL;A;FEMENINO;B;0.6746;0.6489;0.6733;0.6615;0.7078;0.6954;3
105001010448;INST EDUC LA ESPERANZA;6.293135554;-75.57717742;ANTIOQUIA;MEDELLÍN;Urbano;Estrato 3;OFICIAL;A;MIXTO;B;0.7128;0.7049;0.7073;0.6975;0.7395;0.7184;3
105001010588;INST EDUC FE Y ALEGRIA LA CIMA;6.281361493;-75.54763126;ANTIOQUIA;MEDELLÍN;Urbano;Estrato 2;OFICIAL;A;MIXTO;B;0.7068;0.7083;0.6932;0.6988;0.7376;0.6751;1
105001010855;INST EDUC  ANA DE CASTRILLON;6.237848145;-75.5642487;ANTIOQUIA;MEDELLÍN;Urbano;Estrato 3;OFICIAL;A;MIXTO;B;0.6936;0.6928;0.6782;0.6867;0.7205;0.682;4
105001010928;CENT EDUCAL DON BOSCO;6.288532502;-75.57092829;ANTIOQUIA;MEDELLÍN;Urbano;Estrato 3;NO OFICIAL;A;MIXTO;A;0.7516;0.7242;0.7356;0.7558;0.7866;0.764;4
105001011061;INST EDUC JOSE ASUNCION SILVA;6.311279653;-75.56220831;ANTIOQUIA;MEDELLÍN;Urbano;Estrato 3;OFICIAL;A;MIXTO;B;0.711;0.6893;0.7192;0.6936;0.7471;0.6954;4
105001011070;INST EDUC MERCEDITAS GOMEZ MARTINEZ;6.23319628;-75.54658592;ANTIOQUIA;MEDELLÍN;Urbano;Estrato 2;OFICIAL;A;MIXTO;B;0.7016;0.7017;0.6822;0.6939;0.736;0.6801;1
105001011088;INST EDUC CIUDADELA LAS AMERICAS;6.308673065;-75.57532175;ANTIOQUIA;MEDELLÍN;Urbano;Estrato 2;OFICIAL;A;MIXTO;C;0.6598;0.6555;0.6632;0.6443;0.684;0.6371;0
105001011363;INST EDUC DOCE DE OCTUBRE;6.303301717;-75.57677164;ANTIOQUIA;MEDELLÍN;Urbano;Estrato 2;OFICIAL;A;MIXTO;B;0.6752;0.6628;0.6607;0.6604;0.7146;0.6824;1
105001011461;INST EDUC FE Y ALEGRIA AURES;6.294828007;-75.59094622;ANTIOQUIA;MEDELLÍN;Urbano;Estrato 2;OFICIAL;A;MIXTO;A;0.7607;0.7635;0.763;0.7506;0.7719;0.7422;1
105001011606;INST EDUC HORACIO MU?OZ SUESCUN;6.233911703;-75.60923906;ANTIOQUIA;MEDELLÍN;Urbano;Estrato 2;OFICIAL;A;MIXTO;B;0.6845;0.6656;0.683;0.6716;0.7203;0.6772;1
105001011631;INST EDUC ASAMBLEA DEPARTAMENTAL;6.238506914;-75.55152601;ANTIOQUIA;MEDELLÍN;Urbano;Estrato 2;OFICIAL;A;MIXTO;B;0.7035;0.7046;0.6834;0.6985;0.7337;0.6857;1
105001011690;INST EDUC FEDERICO CARRASQUILLA;6.298644676;-75.54929221;ANTIOQUIA;MEDELLÍN;Urbano;Estrato 2;OFICIAL;A;MIXTO;B;0.7011;0.7054;0.6869;0.6896;0.725;0.6933;1
105001011711;INST EDUC FE Y ALEGRIA VILLA DE LA CANDELARIA;6.285169726;-75.5938331;ANTIOQUIA;MEDELLÍN;Urbano;Estrato 2;OFICIAL;A;MIXTO;B;0.7049;0.6972;0.7015;0.6822;0.7449;0.6858;1
105001011886;INST EDUC AMERICA;6.246192819;-75.61537888;ANTIOQUIA;MEDELLÍN;Urbano;Estrato 2;OFICIAL;A;MIXTO;C;0.6514;0.6299;0.6505;0.6358;0.6903;0.649;0
105001012092;INST EDUC BARRIO SANTANDER;6.30657981;-75.57598123;ANTIOQUIA;MEDELLÍN;Urbano;Estrato 2;OFICIAL;A;MIXTO;B;0.6856;0.6657;0.6886;0.6756;0.7201;0.6626;1
105001012106;INST EDUC JUAN MARIA CESPEDES;6.235279058;-75.59708704;ANTIOQUIA;MEDELLÍN;Urbano;Estrato 3;OFICIAL;A;MIXTO;A;0.7591;0.7592;0.7573;0.7482;0.7732;0.755;3
105001012165;INST EDUC GUADALUPE;6.286615295;-75.55010038;ANTIOQUIA;MEDELLÍN;Urbano;Estrato 2;OFICIAL;A;MIXTO;C;0.6246;0.6123;0.6085;0.6068;0.6739;0.6157;1
105001012581;INSTITUCION EDUCATIVA REINO DE BELGICA;6.284842044;-75.53882327;ANTIOQUIA;MEDELLÍN;Urbano;Estrato 1;OFICIAL;A;MIXTO;C;0.6352;0.6244;0.6383;0.6235;0.6649;0.6044;2
105001012696;INST EDUC ALFONSO LOPEZ PUMAREJO;6.250214413;-75.55499376;ANTIOQUIA;MEDELLÍN;Urbano;Estrato 2;OFICIAL;A;MIXTO;B;0.7057;0.7084;0.6918;0.6995;0.7266;0.6944;0
105001012700;INST EDUC SAN PABLO;6.288242181;-75.54683789;ANTIOQUIA;MEDELLÍN;Urbano;Estrato 2;OFICIAL;A;MIXTO;B;0.6744;0.6581;0.6777;0.664;0.7104;0.6362;0
105001013013;INSTITUCION EDUCATIVA EL PICACHITO;6.300260121;-75.58486708;ANTIOQUIA;MEDELLÍN;Urbano;Estrato 1;OFICIAL;A;MIXTO;A;0.7458;0.7492;0.7485;0.739;0.7517;0.7297;2
105001013072;INST EDUC MAESTRO PEDRO NEL GOMEZ;6.311350004;-75.56781502;ANTIOQUIA;MEDELLÍN;Urbano;Estrato 3;OFICIAL;A;MIXTO;B;0.7148;0.7159;0.6995;0.7062;0.7393;0.7095;4
105001013145;INST EDUC SANTA TERESA;6.30123519;-75.55612491;ANTIOQUIA;MEDELLÍN;Urbano;Estrato 2;OFICIAL;A;MIXTO;A;0.763;0.7715;0.7499;0.7641;0.7773;0.7305;0
105001013340;INST EDUC INEM JOSE FELIX DE RESTREPO;6.206855762;-75.57766667;ANTIOQUIA;MEDELLÍN;Urbano;Estrato 2;OFICIAL;A;MIXTO;A;0.7464;0.7444;0.7345;0.7394;0.7724;0.7314;1
105001013439;INST EDUC FELIX DE BEDOUT MORENO;6.306094222;-75.56947217;ANTIOQUIA;MEDELLÍN;Urbano;Estrato 3;OFICIAL;A;MIXTO;B;0.7051;0.6937;0.6892;0.6956;0.7399;0.7105;3
105001013447;INST EDUC JOSE HORACIO BETANCUR;6.274871;-75.627692;ANTIOQUIA;MEDELLÍN;Rural;Estrato 2;OFICIAL;A;MIXTO;C;0.6446;0.6282;0.6505;0.6328;0.6713;0.6315;1
105001013633;INST EDUC LOMA HERMOSA;6.207411;-75.558658;ANTIOQUIA;MEDELLÍN;Rural;Estrato 2;OFICIAL;A;MIXTO;C;0.6634;0.6543;0.6749;0.6354;0.6985;0.6348;0
105001014397;INST EDUC LUIS LOPEZ DE MESA;6.284227173;-75.58071194;ANTIOQUIA;MEDELLÍN;Urbano;Estrato 2;OFICIAL;A;MIXTO;B;0.6944;0.692;0.6868;0.6726;0.7289;0.6859;1
105001014851;INST EDUC JESUS REY;6.283376907;-75.59200862;ANTIOQUIA;MEDELLÍN;Urbano;Estrato 2;OFICIAL;A;MIXTO;A;0.7517;0.7343;0.7381;0.7536;0.7784;0.7587;1
105001015091;INST EDUC FE Y ALEGRIA GRANIZAL;6.292786727;-75.547822;ANTIOQUIA;MEDELLÍN;Urbano;Estrato 2;OFICIAL;A;MIXTO;B;0.6984;0.6832;0.6986;0.6963;0.7285;0.6589;1
105001015148;INST EDUC CAMILO MORA CARRASQUILLA;6.27836636;-75.6062211;ANTIOQUIA;MEDELLÍN;Urbano;Estrato 2;OFICIAL;A;MIXTO;C;0.6444;0.6282;0.6276;0.6235;0.7019;0.6337;0
105001015172;INST EDUC EDUARDO SANTOS;6.258407537;-75.6289393;ANTIOQUIA;MEDELLÍN;Urbano;Estrato 1;OFICIAL;A;MIXTO;B;0.6709;0.6439;0.6685;0.6549;0.7179;0.6657;5
105001015211;INST EDUC LA LIBERTAD;6.239640218;-75.54107569;ANTIOQUIA;MEDELLÍN;Urbano;Estrato 1;OFICIAL;A;MIXTO;C;0.6253;0.6347;0.6353;0.6027;0.6338;0.609;2
105001015831;INST EDUC VALLEJUELOS;6.276813703;-75.61442565;ANTIOQUIA;MEDELLÍN;Urbano;Estrato 1;OFICIAL;A;MIXTO;C;0.6627;0.6181;0.6619;0.6671;0.7088;0.6477;2
105001016420;INST EDUC TRICENTENARIO;6.291966912;-75.56484366;ANTIOQUIA;MEDELLÍN;Urbano;Estrato 2;OFICIAL;A;MIXTO;B;0.6868;0.6774;0.6738;0.6828;0.7161;0.6786;0
105001017132;INST EDUC FE Y ALEGRIA SAN JOSE;6.291269344;-75.58998532;ANTIOQUIA;MEDELLÍN;Urbano;Estrato 2;OFICIAL;A;MIXTO;C;0.6644;0.6353;0.649;0.6675;0.7094;0.6537;0
105001017965;INST EDUC MANUEL JOSE GOMEZ S;6.294065152;-75.57358294;ANTIOQUIA;MEDELLÍN;Urbano;Estrato 3;OFICIAL;A;MIXTO;B;0.7028;0.6945;0.6823;0.6991;0.7385;0.6932;4
105001018759;INST EDUC FE Y ALEGRIA EL LIMONAR;6.174378;-75.642249;ANTIOQUIA;MEDELLÍN;Rural;Estrato 2;OFICIAL;A;MIXTO;B;0.6736;0.6581;0.6491;0.6723;0.7189;0.6621;0
105001019011;I.E. STELLA VELEZ LONDOÑO;6.268431442;-75.61630399;ANTIOQUIA;MEDELLÍN;Urbano;Estrato 1;OFICIAL;A;MIXTO;B;0.7031;0.7008;0.698;0.6945;0.7316;0.666;5
105001019062;INST EDUC ALFONSO MORA NARANJO;6.271177582;-75.55699705;ANTIOQUIA;MEDELLÍN;Urbano;Estrato 3;OFICIAL;A;MIXTO;B;0.687;0.6647;0.6662;0.6941;0.7278;0.6721;4
105001019089;INST EDUC VIDA PARA TODOS;6.233723235;-75.53901392;ANTIOQUIA;MEDELLÍN;Urbano;Estrato 1;OFICIAL;A;MIXTO;C;0.6521;0.6508;0.6455;0.629;0.6882;0.6365;2
105001019143;I.E. JORGE ELIECER GAITAN;6.289960307;-75.58500995;ANTIOQUIA;MEDELLÍN;Urbano;Estrato 2;OFICIAL;A;MIXTO;B;0.7109;0.7134;0.6956;0.6899;0.7425;0.7175;1
105001019194;INST EDUC EL PEDREGAL;6.300198847;-75.5753584;ANTIOQUIA;MEDELLÍN;Urbano;Estrato 2;OFICIAL;A;MIXTO;B;0.6964;0.6813;0.7009;0.6867;0.7233;0.6763;1
105001019305;INST EDUC LA AVANZADA;6.2944272;-75.5392082;ANTIOQUIA;MEDELLÍN;Urbano;Estrato 1;OFICIAL;A;MIXTO;C;0.6212;0.609;0.6235;0.6076;0.6545;0.5922;2
105001019330;INST EDUC BARRIO SANTA MARGARITA;6.277379346;-75.62019632;ANTIOQUIA;MEDELLÍN;Urbano;Estrato 2;OFICIAL;A;MIXTO;A;0.731;0.7331;0.7123;0.7352;0.7531;0.7017;1
105001019429;INST EDUC LUIS CARLOS GALAN SARMIENTO;6.250244465;-75.54709645;ANTIOQUIA;MEDELLÍN;Urbano;Estrato 2;OFICIAL;A;MIXTO;B;0.6702;0.6636;0.6678;0.6492;0.7014;0.6664;0
105001019453;INST EDUC VILLA DEL SOCORRO;6.295362754;-75.55407279;ANTIOQUIA;MEDELLÍN;Urbano;Estrato 2;OFICIAL;A;MIXTO;B;0.6711;0.6795;0.6707;0.6405;0.6986;0.6568;1
105001019534;INST EDUC RODRIGO LARA BONILLA;6.264129099;-75.54076696;ANTIOQUIA;MEDELLÍN;Urbano;Estrato 1;OFICIAL;A;MIXTO;C;0.6391;0.6128;0.6322;0.6339;0.6818;0.6263;2
105001019674;INST EDUC MIRAFLORES - LUIS EDUARDO VALENCIA GARCIA;6.239058448;-75.55151613;ANTIOQUIA;MEDELLÍN;Urbano;Estrato 3;OFICIAL;A;MIXTO;B;0.7027;0.6927;0.6932;0.6906;0.7346;0.7025;4
105001019798;INST EDUC ALFONSO LOPEZ;6.284447815;-75.57894724;ANTIOQUIA;MEDELLÍN;Urbano;Estrato 2;OFICIAL;A;MIXTO;B;0.6853;0.6776;0.6911;0.6548;0.7149;0.6938;0
105001019925;INST EDUC ALCALDIA DE MEDELLIN;6.212620517;-75.60346524;ANTIOQUIA;MEDELLÍN;Urbano;Estrato 2;OFICIAL;A;MIXTO;B;0.6887;0.6784;0.6751;0.6823;0.7162;0.6967;1
105001020028;INST EDUC EL SALVADOR;6.234151214;-75.564764;ANTIOQUIA;MEDELLÍN;Urbano;Estrato 3;OFICIAL;A;MIXTO;B;0.7082;0.7107;0.6938;0.696;0.7378;0.692;3
105001020052;INST EDUC RAFAEL GARCIA HERREROS;6.278859925;-75.60159805;ANTIOQUIA;MEDELLÍN;Urbano;Estrato 2;OFICIAL;A;MIXTO;B;0.6895;0.6654;0.6755;0.6816;0.7297;0.7076;0
105001020273;INST EDUC CIUDAD DON BOSCO;6.292198652;-75.59744942;ANTIOQUIA;MEDELLÍN;Urbano;Estrato 1;OFICIAL;A;MIXTO;B;0.6955;0.6858;0.6966;0.6887;0.7198;0.6682;5
105001021199;INST EDUC LA INDEPENDENCIA;6.253171459;-75.62462859;ANTIOQUIA;MEDELLÍN;Urbano;Estrato 1;OFICIAL;A;MIXTO;C;0.6331;0.6214;0.6325;0.6087;0.6704;0.6314;5
105001021547;INST EDUC VILLA FLORA;6.279744941;-75.5923619;ANTIOQUIA;MEDELLÍN;Urbano;Estrato 2;OFICIAL;A;MIXTO;A;0.7212;0.7201;0.7076;0.7091;0.7415;0.741;0
105001021636;INST EDUC KENNEDY;6.291149438;-75.58182905;ANTIOQUIA;MEDELLÍN;Urbano;Estrato 2;OFICIAL;A;MIXTO;B;0.6786;0.6804;0.664;0.6629;0.7115;0.6644;1
105001021873;INST EDUC SOL DE ORIENTE;6.245232138;-75.54081564;ANTIOQUIA;MEDELLÍN;Urbano;Estrato 1;OFICIAL;A;MIXTO;B;0.6754;0.6691;0.6684;0.6619;0.7065;0.6623;5
105001022101;INST EDUC LAS NIEVES;6.273487841;-75.54916668;ANTIOQUIA;MEDELLÍN;Urbano;Estrato 2;OFICIAL;A;MIXTO;B;0.6962;0.6989;0.6941;0.6781;0.717;0.6869;0
105001023965;INST EDUC FINCA LA MESA;6.303967074;-75.55479431;ANTIOQUIA;MEDELLÍN;Urbano;Estrato 2;OFICIAL;A;MIXTO;B;0.7027;0.6948;0.696;0.6845;0.7253;0.7328;0
105001024073;INST EDUC CASD;6.296957348;-75.57521781;ANTIOQUIA;MEDELLÍN;Urbano;Estrato 2;OFICIAL;A;MIXTO;B;0.7037;0.6944;0.7016;0.6895;0.737;0.6807;1
105001025763;INST EDUC DEBORA ARANGO PEREZ;6.223766506;-75.62659374;ANTIOQUIA;MEDELLÍN;Urbano;Estrato 2;OFICIAL;A;MIXTO;B;0.6721;0.6494;0.6591;0.6762;0.7021;0.6769;1
105001025771;INST EDUC JOAQUIN VALLEJO ARBELAEZ;6.255680549;-75.54230549;ANTIOQUIA;MEDELLÍN;Urbano;Estrato 1;OFICIAL;A;MIXTO;C;0.6356;0.6107;0.6291;0.6268;0.677;0.6316;5
105001025780;INST EDUC PBRO ANTONIO JOSE BERNAL LONDOÑO SJ;6.301157189;-75.55926055;ANTIOQUIA;MEDELLÍN;Urbano;Estrato 2;OFICIAL;A;MIXTO;B;0.6933;0.6883;0.6777;0.6862;0.7316;0.6613;1
105001025798;INST EDUC ANGELA RESTREPO MORENO;6.17706785;-75.63734888;ANTIOQUIA;MEDELLÍN;Urbano;Estrato 2;OFICIAL;A;MIXTO;B;0.7029;0.6878;0.6842;0.698;0.7477;0.6843;0
105001025844;INST EDUC ANTONIO DERKA - SANTO DOMINGO;6.296648454;-75.53978562;ANTIOQUIA;MEDELLÍN;Urbano;Estrato 1;OFICIAL;A;MIXTO;B;0.6865;0.6857;0.6744;0.6756;0.7201;0.6569;5
105001025984;INST EDUC COLEGIO LOYOLA PARA LA CIENCIA Y LA INNOVACIÓN;6.307867119;-75.55915455;ANTIOQUIA;MEDELLÍN;Urbano;Estrato 3;OFICIAL;A;MIXTO;A+;0.8152;0.8157;0.8066;0.804;0.8311;0.8255;3
105001026000;INST EDUC CIUDADELA NUEVO OCCIDENTE;6.281681513;-75.61690649;ANTIOQUIA;MEDELLÍN;Urbano;Estrato 2;OFICIAL;A;MIXTO;C;0.6562;0.6381;0.6524;0.6371;0.6969;0.6569;0
105001026352;INSTITUCION EDUCATIVA EL CORAZÓN;6.247394393;-75.62943458;ANTIOQUIA;MEDELLÍN;Urbano;Estrato 1;OFICIAL;A;MIXTO;C;0.6217;0.606;0.6309;0.5953;0.6563;0.6168;2
105001026361;INSTITUCION EDUCATIVA JESUS MARIA VALLE;6.30028077;-75.58235177;ANTIOQUIA;MEDELLÍN;Urbano;Estrato 1;OFICIAL;A;MIXTO;C;0.64;0.6273;0.6341;0.626;0.6827;0.6091;2
105001026514;INST EDUC SAN BENITO;6.25528446;-75.57172268;ANTIOQUIA;MEDELLÍN;Urbano;Estrato 3;OFICIAL;A;MIXTO;B;0.7075;0.7063;0.7134;0.6959;0.727;0.6703;3
105001026549;INST EDUC BELLO ORIENTE;6.276714917;-75.53817937;ANTIOQUIA;MEDELLÍN;Urbano;Estrato 1;OFICIAL;A;MIXTO;C;0.6391;0.6114;0.6228;0.6281;0.693;0.6424;2
105001026654;INST EDUC EL PLAYON;6.307658695;-75.55518289;ANTIOQUIA;MEDELLÍN;Urbano;Estrato 2;OFICIAL;A;MIXTO;D;0.5843;0.5545;0.5727;0.5805;0.6239;0.6007;0
105001026671;INST EDUC SAN NICOLAS;6.288162023;-75.55282705;ANTIOQUIA;MEDELLÍN;Urbano;Estrato 2;OFICIAL;A;MIXTO;B;0.6923;0.6791;0.6851;0.6934;0.7163;0.6778;0
105001026689;INST EDUC BLANQUIZAL;6.274475931;-75.6051419;ANTIOQUIA;MEDELLÍN;Urbano;Estrato 1;OFICIAL;A;MIXTO;D;0.6195;0.5966;0.6005;0.6143;0.6706;0.6075;2
105001026697;INST EDUC FUNDADORES;6.259254033;-75.61693186;ANTIOQUIA;MEDELLÍN;Urbano;Estrato 2;OFICIAL;A;MIXTO;D;0.5992;0.5762;0.608;0.5624;0.6523;0.5926;0
105001026701;INST EDUC PROGRESAR;6.309006489;-75.58047437;ANTIOQUIA;MEDELLÍN;Urbano;Estrato 1;OFICIAL;A;MIXTO;D;0.5892;0.5771;0.5691;0.5672;0.6438;0.588;2
105001800112;INST EDUC EL DIAMANTE;6.286473157;-75.58864174;ANTIOQUIA;MEDELLÍN;Urbano;Estrato 2;OFICIAL;A;MIXTO;B;0.6942;0.6931;0.6685;0.7032;0.7255;0.6533;0
105002000047;I. E. FUNDACION CELIA DUQUE DE DUQUE;5.786431299;-75.42679181;ANTIOQUIA;ABEJORRAL;Urbano;Estrato 2;OFICIAL;A;MIXTO;A;0.7351;0.7221;0.7222;0.7488;0.7495;0.7281;1
105002000055;I. E.  MANUEL CANUTO RESTREPO;5.787532081;-75.432343;ANTIOQUIA;ABEJORRAL;Urbano;Estrato 2;OFICIAL;A;MIXTO;B;0.6705;0.6709;0.6826;0.6487;0.6884;0.6444;1
105002000161;I. E. ESCUELA NORMAL SUPERIOR;5.788133928;-75.42921627;ANTIOQUIA;ABEJORRAL;Urbano;Estrato 2;OFICIAL;A;MIXTO;B;0.7197;0.725;0.727;0.7043;0.7402;0.6662;1
105004000109;I. E.  LA MILAGROSA;6.631725733;-76.06560248;ANTIOQUIA;ABRIAQUÍ;Urbano;Estrato 2;OFICIAL;A;MIXTO;C;0.6384;0.6255;0.6433;0.6139;0.6778;0.6174;0
105021000139;I. E. PROCESA DELGADO;6.378611111;-75.14083333;ANTIOQUIA;ALEJANDRÍA;Urbano;Estrato 2;OFICIAL;A;MIXTO;B;0.6929;0.6903;0.6876;0.6841;0.7277;0.6396;0
105030000010;I. E. ESCUELA NORMAL SUPERIOR AMAGA;6.037611746;-75.7049181;ANTIOQUIA;AMAGÁ;Urbano;Estrato 2;OFICIAL;A;MIXTO;B;0.7133;0.7039;0.7014;0.7074;0.7458;0.6982;1
105030000028;I. E. SAN FERNANDO;6.033594312;-75.70286326;ANTIOQUIA;AMAGÁ;Urbano;Estrato 2;OFICIAL;A;MIXTO;C;0.6452;0.62;0.6449;0.6368;0.6856;0.6261;1
105031000056;I. E. PRESBITERO GERARDO MONTOYA;6.909579632;-75.07677351;ANTIOQUIA;AMALFI;Urbano;Estrato 1;OFICIAL;A;MIXTO;B;0.6971;0.7007;0.679;0.6894;0.7201;0.695;2
105031001516;I. E. EDUARDO FERNANDEZ BOTERO;6.907041969;-75.07358005;ANTIOQUIA;AMALFI;Urbano;Estrato 1;OFICIAL;A;MIXTO;A;0.7224;0.7429;0.7085;0.701;0.7397;0.7159;5
105031001583;I. E. PUEBLO NUEVO;6.912741816;-75.08278331;ANTIOQUIA;AMALFI;Urbano;Estrato 1;OFICIAL;A;MIXTO;C;0.6414;0.6291;0.6361;0.6221;0.6888;0.6103;2
105034000014;I. E. SAN JUAN DE LOS ANDES;5.657399716;-75.87788204;ANTIOQUIA;ANDES;Urbano;Estrato 2;OFICIAL;A;MIXTO;A;0.7642;0.7805;0.7608;0.7627;0.7714;0.7085;1
105034000278;I. E. MARCO FIDEL SUAREZ;5.657153419;-75.88165195;ANTIOQUIA;ANDES;Urbano;Estrato 2;OFICIAL;A;MIXTO;B;0.7159;0.7041;0.7055;0.7155;0.7368;0.7209;1
105034000740;I. E. JUAN DE DIOS URIBE;5.653517073;-75.8755246;ANTIOQUIA;ANDES;Urbano;Estrato 1;OFICIAL;A;MIXTO;C;0.6454;0.6519;0.6432;0.6277;0.6733;0.6021;5
105034001207;I. E. MARIA AUXILIADORA;5.657971595;-75.87704437;ANTIOQUIA;ANDES;Urbano;Estrato 2;OFICIAL;A;MIXTO;A;0.7452;0.7343;0.7509;0.7425;0.7622;0.7181;1
105036000097;I. E.  SAN JOSE;6.110580632;-75.7130685;ANTIOQUIA;ANGELÓPOLIS;Urbano;Estrato 2;OFICIAL;A;MIXTO;C;0.65;0.637;0.6504;0.633;0.6877;0.6253;0
105038000019;I. E. MARIANO DE JESUS EUSSE;6.884525261;-75.33481983;ANTIOQUIA;ANGOSTURA;Urbano;Estrato 1;OFICIAL;A;MIXTO;D;0.6157;0.6157;0.6201;0.5971;0.6406;0.5834;5
105040000212;I. E. ANORI;7.081111;-75.136111;ANTIOQUIA;ANORÍ;Urbano;Estrato 2;OFICIAL;A;MIXTO;D;0.6108;0.593;0.6064;0.597;0.6576;0.5777;1
105042000180;I. E. SAN LUIS GONZAGA;6.558153541;-75.82446946;ANTIOQUIA;SANTA FÉ DE ANTIOQUIA;Urbano;Estrato 2;OFICIAL;A;MIXTO;B;0.6871;0.6806;0.6737;0.6795;0.7199;0.6716;0
105042000732;I. E. ARTURO VELASQUEZ ORTIZ;6.551420452;-75.82457866;ANTIOQUIA;SANTA FÉ DE ANTIOQUIA;Urbano;Estrato 1;OFICIAL;A;MIXTO;C;0.6541;0.6383;0.6501;0.649;0.6862;0.633;2
105044000128;I. E. ANZA;6.301113524;-75.85456828;ANTIOQUIA;ANZÁ;Urbano;Estrato 2;OFICIAL;A;MIXTO;B;0.7107;0.7034;0.7094;0.6947;0.7288;0.7309;0
105045000148;I.E. JOSE CELESTINO MUTIS;7.895461695;-76.63637021;ANTIOQUIA;APARTADÓ;Urbano;Estrato 2;OFICIAL;A;MIXTO;B;0.6772;0.6846;0.678;0.655;0.6988;0.6543;0
105045000164;I.E. MADRE LAURA;7.885804096;-76.63284577;ANTIOQUIA;APARTADÓ;Urbano;Estrato 2;OFICIAL;A;MIXTO;A;0.7263;0.7127;0.7075;0.7243;0.7496;0.7591;1
105045000393;I.E. ALFONSO LOPEZ;7.87558817;-76.61497085;ANTIOQUIA;APARTADÓ;Urbano;Estrato 2;OFICIAL;A;MIXTO;C;0.6537;0.6399;0.6438;0.6494;0.6914;0.6241;0
105045000601;I.E. CADENA LAS PLAYAS;7.878534402;-76.62193582;ANTIOQUIA;APARTADÓ;Urbano;Estrato 2;OFICIAL;A;MIXTO;B;0.6815;0.6876;0.6568;0.665;0.7163;0.6824;0
105045001217;I.E. POLICARPA SALAVARRIETA;7.876792429;-76.61267043;ANTIOQUIA;APARTADÓ;Urbano;Estrato 2;OFICIAL;A;MIXTO;C;0.6329;0.6348;0.6213;0.6065;0.6771;0.6086;0
105045001454;I.E. SAN FRACISCO DE ASIS;7.881528283;-76.62411964;ANTIOQUIA;APARTADÓ;Urbano;Estrato 2;OFICIAL;A;MIXTO;B;0.6986;0.6938;0.6863;0.6974;0.7307;0.6573;0
105045001527;I.E. SANTA MARIA DE LA ANTIGUA;7.880733993;-76.61550103;ANTIOQUIA;APARTADÓ;Urbano;Estrato 1;OFICIAL;A;MIXTO;D;0.6166;0.6006;0.5917;0.6188;0.6605;0.6015;2
105045001667;I.E. LA PAZ;7.880394853;-76.61040019;ANTIOQUIA;APARTADÓ;Urbano;Estrato 1;OFICIAL;A;MIXTO;C;0.6532;0.6384;0.6453;0.6447;0.6847;0.6517;2
105045001683;I. E. HERACLIO MENA PADILLA;7.877655208;-76.62840098;ANTIOQUIA;APARTADÓ;Urbano;Estrato 2;OFICIAL;A;MIXTO;C;0.6415;0.6266;0.6237;0.6349;0.6854;0.6271;0
105051000028;I. E. MIGUEL VICENTE GARRIDO ORTIZ;8.848860941;-76.42662658;ANTIOQUIA;ARBOLETES;Urbano;Estrato 1;OFICIAL;A;MIXTO;C;0.6486;0.6383;0.6439;0.6365;0.6751;0.6504;5
105051000508;I. E. JOSE MANUEL RESTREPO;8.848799785;-76.42203298;ANTIOQUIA;ARBOLETES;Urbano;Estrato 1;OFICIAL;A;MIXTO;C;0.6266;0.6205;0.6222;0.616;0.6546;0.6057;2
105055000022;I. E. SANTA TERESA;5.731250855;-75.13936704;ANTIOQUIA;ARGELIA;Urbano;Estrato 1;OFICIAL;A;MIXTO;C;0.6657;0.6493;0.658;0.673;0.6922;0.6366;2
105059000116;I. E. ROSA MESA DE MEJIA;6.158056;-75.786944;ANTIOQUIA;ARMENIA;Urbano;Estrato 2;OFICIAL;A;MIXTO;B;0.6991;0.6973;0.6871;0.6865;0.7273;0.6937;0
105079000015;I. E. MANUEL JOSE CAICEDO;6.434690595;-75.32719625;ANTIOQUIA;BARBOSA;Urbano;Estrato 2;OFICIAL;A;MIXTO;B;0.692;0.688;0.6788;0.6879;0.7236;0.6603;1
105079000082;I. E.  LUIS EDUARDO ARIAS REINEL;6.434564074;-75.32888009;ANTIOQUIA;BARBOSA;Urbano;Estrato 2;OFICIAL;A;MIXTO;B;0.7017;0.702;0.6884;0.6933;0.7314;0.6761;1
105079000406;I. E. PRESBITERO LUIS EDUARDO PEREZ MOLINA;6.435034227;-75.32927613;ANTIOQUIA;BARBOSA;Urbano;Estrato 2;OFICIAL;A;MIXTO;A;0.7309;0.7204;0.7235;0.7276;0.7645;0.6943;0
105086000110;I.E. PBRO. RICARDO LUIS GUTIERREZ TOBON;6.602919187;-75.66522374;ANTIOQUIA;BELMIRA;Urbano;Estrato 2;OFICIAL;A;MIXTO;B;0.685;0.6791;0.6868;0.6756;0.7052;0.6643;0
105088000273;IE FERNANDO VELEZ;6.337347481;-75.56773368;ANTIOQUIA;BELLO;Urbano;Estrato 2;OFICIAL;A;MIXTO;B;0.7075;0.6969;0.7039;0.6942;0.7423;0.6854;0
105088000290;IE DIVINA EUCARISTIA;6.335206402;-75.56083091;ANTIOQUIA;BELLO;Urbano;Estrato 3;OFICIAL;A;MIXTO;B;0.6876;0.6791;0.6703;0.6711;0.7231;0.7074;4
105088000338;IE JUAN IGNACIO CASTRILLON ROLDAN;6.31365304;-75.58167594;ANTIOQUIA;BELLO;Urbano;Estrato 1;OFICIAL;A;MIXTO;C;0.6541;0.6526;0.6491;0.6336;0.6917;0.6226;2
105088000362;IE CINCUENTENARIO DE FABRICATO;6.342014844;-75.563126;ANTIOQUIA;BELLO;Urbano;Estrato 2;OFICIAL;A;MIXTO;B;0.6959;0.6784;0.6816;0.6922;0.726;0.7115;0
105088000389;IE SANTA CATALINA;6.3392424;-75.55586324;ANTIOQUIA;BELLO;Urbano;Estrato 3;OFICIAL;A;MIXTO;A;0.737;0.7238;0.728;0.7336;0.7706;0.7131;4
105088000419;IE LA GABRIELA;6.319245572;-75.5501658;ANTIOQUIA;BELLO;Urbano;Estrato 2;OFICIAL;A;MIXTO;B;0.6701;0.6636;0.6649;0.6484;0.7108;0.6479;0
105088000427;IE SAGRADO CORAZON;6.333411822;-75.55681613;ANTIOQUIA;BELLO;Urbano;Estrato 3;OFICIAL;A;MIXTO;A;0.7349;0.7286;0.7256;0.7258;0.7569;0.7431;4
105088000486;IE PLAYA RICA;6.34405225;-75.56726344;ANTIOQUIA;BELLO;Urbano;Estrato 2;OFICIAL;A;MIXTO;C;0.6457;0.6397;0.6386;0.6187;0.688;0.6391;0
105088000532;IE LA MILAGROSA;6.342391171;-75.5609299;ANTIOQUIA;BELLO;Urbano;Estrato 2;OFICIAL;A;MIXTO;B;0.69;0.665;0.6755;0.6921;0.7232;0.7026;0
105088000877;IE MARCO FIDEL SUAREZ;6.336570001;-75.55990138;ANTIOQUIA;BELLO;Urbano;Estrato 2;OFICIAL;A;MIXTO;B;0.7076;0.6962;0.6935;0.6967;0.7433;0.7094;0
105088001415;IE ABRAHAM REYES;6.346827649;-75.55418578;ANTIOQUIA;BELLO;Urbano;Estrato 1;OFICIAL;A;MIXTO;B;0.7111;0.7011;0.7076;0.705;0.747;0.6627;2
105088001431;IE LA CAMILA;6.328922377;-75.54081946;ANTIOQUIA;BELLO;Urbano;Estrato 1;OFICIAL;A;MIXTO;B;0.6871;0.6808;0.6858;0.6879;0.7045;0.6546;2
105088001521;I.E. CENTENARIO DE BELLO;6.306702945;-75.54533291;ANTIOQUIA;BELLO;Urbano;Estrato 1;OFICIAL;A;MIXTO;C;0.6634;0.6555;0.6554;0.6467;0.7044;0.639;2
105088001539;IE ANDRES BELLO;6.338215747;-75.55825554;ANTIOQUIA;BELLO;Urbano;Estrato 3;OFICIAL;A;MIXTO;A;0.7577;0.7557;0.7414;0.7501;0.7789;0.7715;3
105088001555;IE HERNAN VILLA BAENA;6.347878227;-75.56555067;ANTIOQUIA;BELLO;Urbano;Estrato 2;OFICIAL;A;MIXTO;B;0.6946;0.6835;0.6985;0.6773;0.7229;0.683;0
105088001679;COL SANTO DOMINGO DE GUZMAN;6.311383951;-75.55346752;ANTIOQUIA;BELLO;Urbano;Estrato 3;OFICIAL;A;MIXTO;A;0.7675;0.7638;0.7592;0.7506;0.7862;0.7984;3
105088001709;IE NUEVA GENERACION;6.343836018;-75.54635997;ANTIOQUIA;BELLO;Urbano;Estrato 2;OFICIAL;A;MIXTO;A+;0.8131;0.8288;0.8059;0.8075;0.8209;0.7805;0
105088001750;I.E. FEDERICO SIERRA ARANGO;6.309993206;-75.55278442;ANTIOQUIA;BELLO;Urbano;Estrato 2;OFICIAL;A;MIXTO;A;0.7287;0.7392;0.7384;0.7041;0.7439;0.6969;0
105088001873;IE CARLOS PEREZ MEJIA;6.337607859;-75.56498062;ANTIOQUIA;BELLO;Urbano;Estrato 2;OFICIAL;A;MIXTO;B;0.7087;0.7017;0.709;0.6919;0.7334;0.7051;0
105088001911;IE COMERCIAL ANTONIO ROLDAN BETANCUR;6.345798485;-75.55315954;ANTIOQUIA;BELLO;Urbano;Estrato 2;OFICIAL;A;MIXTO;B;0.672;0.6553;0.667;0.6613;0.7076;0.6626;1
105088001971;IE JOSEFA CAMPOS;6.345827792;-75.55248506;ANTIOQUIA;BELLO;Urbano;Estrato 2;OFICIAL;A;MIXTO;A;0.7293;0.7313;0.7311;0.7137;0.7495;0.7045;0
105088002306;IE GILBERTO ECHEVERRI MEJIA;6.347557037;-75.55870618;ANTIOQUIA;BELLO;Urbano;Estrato 2;OFICIAL;A;MIXTO;B;0.7038;0.703;0.692;0.6792;0.7398;0.7078;0
105088002641;IE LA NAVARRA;6.34666673;-75.53157947;ANTIOQUIA;BELLO;Urbano;Estrato 3;OFICIAL;A;MIXTO;B;0.7162;0.7072;0.7127;0.7104;0.7415;0.6957;4
105088002691;IE ATANASIO GIRARDOT;6.314067014;-75.56994216;ANTIOQUIA;BELLO;Urbano;Estrato 3;OFICIAL;A;MIXTO;B;0.6843;0.6804;0.6606;0.6718;0.7227;0.6891;3
105088002705;IE VILLA DEL SOL;6.35159489;-75.56701852;ANTIOQUIA;BELLO;Urbano;Estrato 2;OFICIAL;A;MIXTO;A;0.7234;0.7268;0.7294;0.7052;0.7411;0.697;0
105088002829;IE TOMAS CADAVID RESTREPO;6.325034765;-75.56068639;ANTIOQUIA;BELLO;Urbano;Estrato 3;OFICIAL;A;MIXTO;B;0.714;0.7076;0.6965;0.7076;0.7402;0.7267;4
105088002896;IE CONCEJO DE BELLO;6.340719848;-75.55334515;ANTIOQUIA;BELLO;Urbano;Estrato 3;OFICIAL;A;MIXTO;A;0.741;0.7318;0.7271;0.7314;0.7734;0.7426;3
105088002993;IE ALBERTO DIAZ MUÑOZ;6.313163294;-75.58369045;ANTIOQUIA;BELLO;Urbano;Estrato 1;OFICIAL;A;MIXTO;B;0.6925;0.6917;0.6783;0.6751;0.7351;0.6625;2
105088800016;INSTITUCION EDUCATIVA BETSABÉ ESPINAL;6.343792404;-75.54188373;ANTIOQUIA;BELLO;Urbano;Estrato 3;OFICIAL;A;MIXTO;B;0.6774;0.6468;0.6547;0.6813;0.7306;0.666;3
105091000012;I. E. PERLA DEL CITARA;5.74450584;-75.97448839;ANTIOQUIA;BETANIA;Urbano;Estrato 2;OFICIAL;A;MIXTO;B;0.6781;0.6679;0.6638;0.6713;0.7083;0.6811;0
105093000109;I. E. SAN JOSE;6.113491169;-75.98378983;ANTIOQUIA;BETULIA;Urbano;Estrato 1;OFICIAL;A;MIXTO;C;0.6413;0.6285;0.6281;0.6371;0.6795;0.6176;5
105101000172;I. E. MARIA AUXILIADORA;5.850089323;-76.02515402;ANTIOQUIA;CIUDAD BOLÍVAR;Urbano;Estrato 2;OFICIAL;A;MIXTO;A;0.7677;0.7753;0.759;0.7585;0.7965;0.7119;0
105101000571;I. E.  SAN JOSE DEL CITARA;5.847237549;-76.01899364;ANTIOQUIA;CIUDAD BOLÍVAR;Urbano;Estrato 2;OFICIAL;A;MIXTO;B;0.6855;0.6604;0.6757;0.6826;0.7263;0.6763;1
105101000717;I. E. JOSE MARIA HERRAN;5.854544179;-76.03386925;ANTIOQUIA;CIUDAD BOLÍVAR;Urbano;Estrato 2;OFICIAL;A;MIXTO;B;0.7004;0.6996;0.6968;0.6879;0.7209;0.6902;0
105107000166;I. E. ANTONIO ROLDAN BETANCUR;7.109722;-75.552778;ANTIOQUIA;BRICEÑO;Urbano;Estrato 2;OFICIAL;A;MIXTO;D;0.6153;0.6023;0.6179;0.6142;0.6385;0.5807;0
105113000071;I. E. SANTA GEMA;6.71925;-75.90611501;ANTIOQUIA;BURITICÁ;Urbano;Estrato 1;OFICIAL;A;MIXTO;C;0.6679;0.6524;0.6642;0.6693;0.6919;0.6492;2
105120000345;I. E. MONSEÑOR GERARDO PATIÑO;7.581870843;-75.34744312;ANTIOQUIA;CÁCERES;Urbano;Estrato 1;OFICIAL;A;MIXTO;C;0.6659;0.6549;0.6377;0.6771;0.709;0.6204;2
105125000254;I. E. SAN JUAN BOSCO;6.404613746;-75.9819399;ANTIOQUIA;CAICEDO;Urbano;Estrato 1;OFICIAL;A;MIXTO;C;0.6605;0.6399;0.6722;0.6608;0.6827;0.6202;2
105129000071;I. E. FEDERICO ANGEL;6.083309135;-75.6343435;ANTIOQUIA;CALDAS;Urbano;Estrato 2;OFICIAL;A;MIXTO;C;0.6686;0.6522;0.6738;0.6518;0.6938;0.6768;0
105129000089;I. E. GABRIEL ECHAVARRIA;6.110098072;-75.63698667;ANTIOQUIA;CALDAS;Urbano;Estrato 2;OFICIAL;A;MIXTO;B;0.677;0.6618;0.6737;0.6659;0.7124;0.6599;0
105129000208;I. E. MARIA AUXILIADORA;6.090204084;-75.63559428;ANTIOQUIA;CALDAS;Urbano;Estrato 2;OFICIAL;A;MIXTO;A+;0.7732;0.7762;0.7668;0.765;0.7893;0.7596;0
105129000216;I. E. JOSE MARIA BERNAL;6.092376439;-75.63984675;ANTIOQUIA;CALDAS;Urbano;Estrato 2;OFICIAL;A;MIXTO;B;0.6738;0.6683;0.6741;0.6496;0.7059;0.6666;0
105129000534;I. E.  PEDRO LUIS ALVAREZ CORREA;6.092465988;-75.63474395;ANTIOQUIA;CALDAS;Urbano;Estrato 2;OFICIAL;A;MIXTO;A;0.7214;0.7199;0.7069;0.712;0.7524;0.7043;1
105134000046;I. E.  NUESTRA SEÑORA DEL ROSARIO;6.978889;-75.299444;ANTIOQUIA;CAMPAMENTO;Urbano;Estrato 1;OFICIAL;A;MIXTO;C;0.6433;0.6191;0.6511;0.6367;0.6797;0.6032;2
105138000121;I. E. NICOLAS GAVIRIA;6.760970756;-76.03308206;ANTIOQUIA;CAÑASGORDAS;Urbano;Estrato 2;OFICIAL;A;MIXTO;B;0.6913;0.6917;0.6921;0.6896;0.7112;0.6334;0
105142000136;I. E. GABRIEL CORREA VELEZ;6.411665888;-74.75803537;ANTIOQUIA;CARACOLÍ;Urbano;Estrato 2;OFICIAL;A;MIXTO;B;0.6921;0.6806;0.7037;0.676;0.7202;0.6563;0
105145000145;I. E. JUAN PABLO GOMEZ OCHOA;5.547944789;-75.64278564;ANTIOQUIA;CARAMANTA;Urbano;Estrato 1;OFICIAL;A;MIXTO;C;0.6423;0.6168;0.6536;0.6448;0.6773;0.5724;5
105147000045;I. E. LUIS CARLOS GALAN SARMIENTO;7.749638417;-76.65048725;ANTIOQUIA;CAREPA;Urbano;Estrato 2;OFICIAL;A;MIXTO;B;0.7182;0.73;0.7112;0.7078;0.7331;0.6899;0
105147000401;I. E. COLOMBIA;7.758056;-76.651667;ANTIOQUIA;CAREPA;Urbano;Estrato 2;OFICIAL;A;MIXTO;C;0.6538;0.6607;0.6462;0.6305;0.6924;0.6099;0
105147000568;I. E. JOSE MARIA MUÑOZ FLOREZ;7.758815125;-76.65827802;ANTIOQUIA;CAREPA;Urbano;Estrato 2;OFICIAL;A;MIXTO;B;0.6836;0.6977;0.665;0.6726;0.7084;0.6564;1
105148000243;I. E.  TECNICO INDUSTRIAL JORGE ELIECER GAITAN;6.088487401;-75.33695729;ANTIOQUIA;EL CARMEN DE VIBORAL;Urbano;Estrato 2;OFICIAL;A;MIXTO;A;0.7555;0.775;0.7363;0.7447;0.7719;0.7381;1
105148000863;I. E. CAMPESTRE NUEVO HORIZONTE;6.059167;-75.316111;ANTIOQUIA;EL CARMEN DE VIBORAL;Rural;Estrato 2;OFICIAL;A;MIXTO;B;0.7135;0.7149;0.7238;0.6997;0.7285;0.6746;1
105148001002;I.E. EL PROGRESO;6.071270134;-75.33138981;ANTIOQUIA;EL CARMEN DE VIBORAL;Urbano;Estrato 2;OFICIAL;A;MIXTO;B;0.7053;0.7078;0.7051;0.6931;0.7336;0.6499;0
105150000099;I. E. PBRO JULIO TAMAYO;6.725833;-75.280833;ANTIOQUIA;CAROLINA;Urbano;Estrato 2;OFICIAL;A;MIXTO;B;0.7124;0.7094;0.7079;0.7141;0.7406;0.645;1
105154000280;I. E. SANTO DOMINGO;7.997778;-75.199444;ANTIOQUIA;CAUCASIA;Urbano;Estrato 1;OFICIAL;A;MIXTO;B;0.6966;0.6897;0.7127;0.6817;0.717;0.6526;2
105154000298;I. E. SANTA TERESITA;7.987677865;-75.19483011;ANTIOQUIA;CAUCASIA;Urbano;Estrato 1;OFICIAL;A;MIXTO;B;0.7192;0.7214;0.7219;0.7051;0.7361;0.6968;2
105154000301;I. E. LICEO CAUCASIA;7.983333;-75.199722;ANTIOQUIA;CAUCASIA;Urbano;Estrato 1;OFICIAL;A;MIXTO;A;0.7268;0.7332;0.7283;0.7038;0.7521;0.6956;5
105154000409;I. E. MARCO FIDEL SUAREZ;7.983138558;-75.19891054;ANTIOQUIA;CAUCASIA;Urbano;Estrato 1;OFICIAL;A;MIXTO;B;0.6798;0.6747;0.6945;0.6561;0.7063;0.6425;2
105154000751;I. E. LA MISERICORDIA;7.982896962;-75.20048939;ANTIOQUIA;CAUCASIA;Urbano;Estrato 1;OFICIAL;A;MIXTO;B;0.7074;0.6901;0.7103;0.6975;0.7421;0.6762;2
105154001880;I. E. DIVINO NIÑO;7.983333;-75.2;ANTIOQUIA;CAUCASIA;Urbano;Estrato 1;OFICIAL;A;MIXTO;A;0.7314;0.7333;0.7272;0.7233;0.7576;0.6842;2
105154002274;I. E. ESCUELA NORMAL SUPERIOR DEL BAJO CAUCA;7.964860705;-75.20462102;ANTIOQUIA;CAUCASIA;Urbano;Estrato 2;OFICIAL;A;MIXTO;B;0.7148;0.7257;0.7236;0.6992;0.7261;0.6688;1
105172000076;I. E. LOS ANDES;7.669579911;-76.68463047;ANTIOQUIA;CHIGORODÓ;Urbano;Estrato 2;OFICIAL;A;MIXTO;A;0.7248;0.7317;0.7065;0.7143;0.7563;0.6962;1
105172000220;I. E. MARIA AUXILIADORA;7.667668745;-76.68979959;ANTIOQUIA;CHIGORODÓ;Urbano;Estrato 1;OFICIAL;A;MIXTO;B;0.6756;0.6853;0.6614;0.6683;0.7009;0.6353;2
105172000238;I.E. GONZALO MEJIA;7.668606292;-76.68438145;ANTIOQUIA;CHIGORODÓ;Urbano;Estrato 2;OFICIAL;A;MIXTO;C;0.659;0.6739;0.6483;0.6383;0.6871;0.6247;0
105172000572;I. E. CHIGORODO;7.666389;-76.68;ANTIOQUIA;CHIGORODÓ;Urbano;Estrato 2;OFICIAL;A;MIXTO;C;0.6294;0.6197;0.6265;0.603;0.668;0.6302;0
105172001463;I.E. MUNICIPAL JOSE DE LOS SANTOS ZUÑIGA;7.670278;-76.6725;ANTIOQUIA;CHIGORODÓ;Urbano;Estrato 1;OFICIAL;A;MIXTO;C;0.6434;0.6484;0.6373;0.6226;0.6731;0.6198;2
105190000181;I. E. CISNEROS;6.53871585;-75.08477484;ANTIOQUIA;CISNEROS;Urbano;Estrato 2;OFICIAL;A;MIXTO;C;0.6294;0.6225;0.6176;0.6184;0.6616;0.6217;0
105206000186;I. E.  PRESBITERO LIBARDO AGUIRRE;6.394200062;-75.25667028;ANTIOQUIA;CONCEPCIÓN;Urbano;Estrato 1;OFICIAL;A;MIXTO;C;0.6652;0.6778;0.6379;0.6536;0.7017;0.6344;2
105209000021;I. E. DE JESUS;6.044239586;-75.90848013;ANTIOQUIA;CONCORDIA;Urbano;Estrato 2;OFICIAL;A;MIXTO;B;0.697;0.7081;0.6945;0.6805;0.7211;0.6484;1
105212000082;I. E. SAN LUIS GONZAGA;6.344975008;-75.5166852;ANTIOQUIA;COPACABANA;Urbano;Estrato 2;OFICIAL;A;MIXTO;A;0.738;0.7486;0.7376;0.7126;0.7482;0.7525;1
105212000112;I. E. ESCUELA NORMAL SUPERIOR MARIA AUXILIADORA;6.347198264;-75.50621682;ANTIOQUIA;COPACABANA;Urbano;Estrato 2;OFICIAL;A;MIXTO;A+;0.8227;0.8315;0.8091;0.8181;0.827;0.8385;1
105212000163;I. E. JOSE MIGUEL DE RESTREPO Y PUERTA;6.347188668;-75.50833439;ANTIOQUIA;COPACABANA;Urbano;Estrato 2;OFICIAL;A;MIXTO;A;0.7344;0.7369;0.7274;0.7228;0.7554;0.7192;0
105212000368;I. E. VILLANUEVA;6.34858411;-75.51268564;ANTIOQUIA;COPACABANA;Urbano;Estrato 2;OFICIAL;A;MIXTO;A;0.7245;0.7503;0.7221;0.7004;0.7293;0.7126;0
105212000511;I. E.  PRESBITERO BERNARDO MONTOYA;6.35337;-75.4988805;ANTIOQUIA;COPACABANA;Urbano;Estrato 2;OFICIAL;A;MIXTO;B;0.7139;0.7115;0.7136;0.7002;0.7364;0.6951;1
105212000538;I. E. GABRIELA MISTRAL;6.354119655;-75.49448986;ANTIOQUIA;COPACABANA;Urbano;Estrato 2;OFICIAL;A;MIXTO;C;0.6515;0.6384;0.6631;0.6318;0.691;0.5958;0
105212000830;I. E.  LA TRINIDAD;6.336588249;-75.52783212;ANTIOQUIA;COPACABANA;Urbano;Estrato 2;OFICIAL;A;MIXTO;A;0.7383;0.7363;0.7333;0.7213;0.7622;0.7383;0
105234000086;I. E. MADRE LAURA MONTOYA;7.002689834;-76.26627673;ANTIOQUIA;DABEIBA;Urbano;Estrato 1;OFICIAL;A;MIXTO;C;0.6453;0.6243;0.6442;0.6444;0.6705;0.6388;2
105234000531;I. E.  JUAN HENRIQUE WHITE;7.001314391;-76.26282661;ANTIOQUIA;DABEIBA;Urbano;Estrato 1;OFICIAL;A;MIXTO;C;0.6591;0.6679;0.6346;0.6616;0.6865;0.6161;5
105237000150;I. E. DONMATIAS;6.490059908;-75.39907738;ANTIOQUIA;DONMATÍAS;Urbano;Estrato 2;OFICIAL;A;MIXTO;B;0.7163;0.7166;0.7092;0.7114;0.7319;0.7047;0
105240000136;I. E. URBANA SAN JOSE;6.326585114;-75.76516719;ANTIOQUIA;EBÉJICO;Urbano;Estrato 1;OFICIAL;A;MIXTO;C;0.6684;0.6665;0.6621;0.6493;0.7015;0.6511;5
105250000169;I. E. EL BAGRE;7.612506636;-74.80087889;ANTIOQUIA;EL BAGRE;Urbano;Estrato 1;OFICIAL;A;MIXTO;C;0.6487;0.645;0.6279;0.6483;0.6842;0.6164;5
105250000185;I. E. BIJAO;7.604634929;-74.81542349;ANTIOQUIA;EL BAGRE;Urbano;Estrato 1;OFICIAL;A;MIXTO;C;0.6693;0.6787;0.6635;0.6497;0.6957;0.6376;2
105250000339;I. E. LAS DELICIAS;7.609116043;-74.80493247;ANTIOQUIA;EL BAGRE;Urbano;Estrato 1;OFICIAL;A;MIXTO;D;0.5975;0.5783;0.5807;0.5893;0.6406;0.6003;2
105250000932;I. E. LA ESMERALDA;7.599444;-74.809167;ANTIOQUIA;EL BAGRE;Urbano;Estrato 1;OFICIAL;A;MIXTO;C;0.6229;0.5942;0.6108;0.6248;0.6633;0.6178;2
105250000975;I. E. 20 DE JULIO;7.614943202;-74.80742605;ANTIOQUIA;EL BAGRE;Urbano;Estrato 1;OFICIAL;A;MIXTO;C;0.628;0.616;0.6296;0.6133;0.662;0.6017;2
105264000013;I. E. ENTRERRIOS;6.567584385;-75.51614695;ANTIOQUIA;ENTRERRÍOS;Urbano;Estrato 2;OFICIAL;A;MIXTO;B;0.7163;0.7189;0.7135;0.7191;0.7275;0.6751;0
105266000282;INSTITUCION EDUCATIVA SAN VICENTE DE PAUL;6.166964377;-75.57907814;ANTIOQUIA;ENVIGADO;Urbano;Estrato 3;OFICIAL;A;MIXTO;B;0.6955;0.6895;0.695;0.6691;0.7182;0.7261;4
105266000312;INSTITUCION EDUCATIVA DARIO DE BEDOUT;6.16785491;-75.57838218;ANTIOQUIA;ENVIGADO;Urbano;Estrato 2;OFICIAL;A;MIXTO;B;0.6966;0.6674;0.6867;0.6981;0.7254;0.7226;1
105266000363;INSTITUCION EDUCATIVA ALEJANDRO VELEZ BARRIENTOS;6.1701533;-75.59245335;ANTIOQUIA;ENVIGADO;Urbano;Estrato 3;OFICIAL;A;MIXTO;A;0.7637;0.7675;0.7502;0.7496;0.7786;0.7899;3
105266000428;INSTITUCION EDUCATIVA MARIA POUSSEPIN;6.170997489;-75.57682555;ANTIOQUIA;ENVIGADO;Urbano;Estrato 2;OFICIAL;A;MIXTO;B;0.6873;0.6754;0.6805;0.6562;0.7284;0.7142;0
105266000452;INSTITUCION EDUCATIVA LA PAZ;6.162215779;-75.59361159;ANTIOQUIA;ENVIGADO;Urbano;Estrato 3;OFICIAL;A;MIXTO;A;0.7611;0.7627;0.7547;0.749;0.7784;0.7599;3
105266000461;I.E. NORMAL SUPERIOR DE ENVIGADO;6.167001767;-75.58152383;ANTIOQUIA;ENVIGADO;Urbano;Estrato 3;OFICIAL;A;MIXTO;A+;0.7809;0.7805;0.7654;0.7766;0.7942;0.8023;3
105266000801;INSTITUCION EDUCATIVA JOSE MIGUEL DE LA CALLE;6.172904845;-75.58119021;ANTIOQUIA;ENVIGADO;Urbano;Estrato 3;OFICIAL;A;MIXTO;B;0.6954;0.6874;0.687;0.6807;0.7201;0.714;3
105266000924;INSTITUCION EDUCATIVA COMERCIAL DE ENVIGADO;6.153941695;-75.5849999;ANTIOQUIA;ENVIGADO;Urbano;Estrato 2;OFICIAL;A;MIXTO;B;0.7007;0.6929;0.6938;0.6839;0.7284;0.7125;1
105266001203;INSTITUCI¿N EDUCATIVA EL SALADO;6.153335634;-75.57822132;ANTIOQUIA;ENVIGADO;Urbano;Estrato 2;OFICIAL;A;MIXTO;C;0.668;0.6519;0.6594;0.6565;0.7066;0.6613;1
105282000390;I. E. EFE GOMEZ;5.923254579;-75.67019037;ANTIOQUIA;FREDONIA;Urbano;Estrato 2;OFICIAL;A;MIXTO;B;0.6702;0.6808;0.6457;0.6569;0.7025;0.6545;0
105282000403;I. E. ESCUELA NORMAL SUPERIOR MARIANO OSPINA RODRIGUEZ;5.928914051;-75.67184531;ANTIOQUIA;FREDONIA;Urbano;Estrato 2;OFICIAL;A;MIXTO;B;0.7055;0.7004;0.6995;0.6976;0.7286;0.6925;1
105284000214;I. E.  MANUEL ANTONIO TORO;6.780837573;-76.12583776;ANTIOQUIA;FRONTINO;Urbano;Estrato 2;OFICIAL;A;MIXTO;B;0.712;0.7088;0.7025;0.7068;0.7348;0.6978;1
105284000575;I. E.  LAS MERCEDES;6.792011556;-76.12876303;ANTIOQUIA;FRONTINO;Urbano;Estrato 1;OFICIAL;A;MIXTO;C;0.6523;0.6223;0.6657;0.6533;0.6772;0.6242;2
105306000175;I. E. LUIS ANDRADE VALDERRAMA;6.680919708;-75.95252969;ANTIOQUIA;GIRALDO;Urbano;Estrato 1;OFICIAL;A;MIXTO;B;0.6885;0.6655;0.6908;0.6887;0.7194;0.6576;2
105308000041;I. E. MANUEL JOSE SIERRA;6.376154094;-75.44648994;ANTIOQUIA;GIRARDOTA;Urbano;Estrato 2;OFICIAL;A;MIXTO;B;0.6872;0.6746;0.6894;0.6722;0.7174;0.6732;1
105308000059;COLEGIO NUESTRA SEÑORA DEL ROSARIO;6.375668435;-75.44743482;ANTIOQUIA;GIRARDOTA;Urbano;Estrato 2;NO OFICIAL;A;MIXTO;A+;0.7725;0.7511;0.7672;0.7714;0.7911;0.7993;0
105308000083;I. E. COLOMBIA;6.378633328;-75.4442967;ANTIOQUIA;GIRARDOTA;Urbano;Estrato 2;OFICIAL;A;MIXTO;A;0.74;0.7339;0.7243;0.7379;0.7561;0.7635;0
105308000253;I. E.  EMILIANO GARCIA;6.376193286;-75.44855609;ANTIOQUIA;GIRARDOTA;Urbano;Estrato 2;OFICIAL;A;MIXTO;B;0.6815;0.6641;0.6784;0.6775;0.7147;0.6558;1
105308000482;I. E. ATANASIO GIRARDOT;6.374848394;-75.4509218;ANTIOQUIA;GIRARDOTA;Urbano;Estrato 2;OFICIAL;A;MIXTO;B;0.7168;0.7245;0.7091;0.7045;0.7409;0.6809;1
105310000031;I. E. GOMEZ PLATA;6.678897622;-75.22101242;ANTIOQUIA;GÓMEZ PLATA;Urbano;Estrato 1;OFICIAL;A;MIXTO;A;0.7263;0.736;0.7251;0.7115;0.7461;0.6852;2
105313000016;I. E. JORGE ALBERTO GOMEZ GOMEZ;6.135;-75.179722;ANTIOQUIA;GRANADA;Urbano;Estrato 1;OFICIAL;A;MIXTO;B;0.7134;0.7331;0.6996;0.6978;0.7349;0.6779;5
105315000021;I. E.  LUIS LOPEZ DE MESA;6.812477172;-75.24068823;ANTIOQUIA;GUADALUPE;Urbano;Estrato 1;OFICIAL;A;MIXTO;C;0.6437;0.6221;0.6451;0.6256;0.6846;0.6358;2
105318000049;I. E. SANTO TOMAS DE AQUINO;6.280997119;-75.44400554;ANTIOQUIA;GUARNE;Urbano;Estrato 3;OFICIAL;A;MIXTO;A;0.7495;0.7696;0.7486;0.724;0.7608;0.734;4
105318000278;I. E. INMACULADA CONCEPCION;6.280633192;-75.44323032;ANTIOQUIA;GUARNE;Urbano;Estrato 2;OFICIAL;A;MIXTO;A;0.764;0.7741;0.7656;0.7467;0.775;0.7483;0
105321000025;I. E. NUESTRA SENORA DEL PILAR;6.232566765;-75.15753701;ANTIOQUIA;GUATAPÉ;Urbano;Estrato 2;OFICIAL;A;MIXTO;B;0.7027;0.6999;0.6972;0.6908;0.7232;0.7014;0
105353000051;I. E. AURA MARIA VALENCIA;5.800368077;-75.90495183;ANTIOQUIA;HISPANIA;Urbano;Estrato 1;OFICIAL;A;MIXTO;B;0.712;0.7134;0.7168;0.6973;0.7299;0.6833;2
105360000024;INSTITUCION EDUCATIVA CONCEJO MUNICIPAL DE ITAGUI;6.168471192;-75.64387219;ANTIOQUIA;ITAGÜÍ;Urbano;Estrato 2;OFICIAL;A;MIXTO;A;0.7558;0.759;0.7572;0.7375;0.7612;0.7803;1
105360000083;INSTITUCION EDUCATIVA SAN JOSE;6.168311527;-75.61852632;ANTIOQUIA;ITAGÜÍ;Urbano;Estrato 3;OFICIAL;A;MIXTO;A+;0.7711;0.7622;0.7796;0.7681;0.7805;0.7529;3
105360000105;INSTITUCION EDUCATIVA PEDRO ESTRADA;6.191204371;-75.58882364;ANTIOQUIA;ITAGÜÍ;Urbano;Estrato 3;OFICIAL;A;MIXTO;B;0.6746;0.6604;0.6684;0.6544;0.7119;0.6846;3
105360000253;INSTITUCION EDUCATIVA ESTEBAN OCHOA;6.174670566;-75.63296389;ANTIOQUIA;ITAGÜÍ;Urbano;Estrato 2;OFICIAL;A;MIXTO;B;0.6798;0.6593;0.6794;0.6684;0.7177;0.6629;1
105360000288;INSTITUCION EDUCATIVA ENRIQUE VELEZ ESCOBAR;6.18490442;-75.59861356;ANTIOQUIA;ITAGÜÍ;Urbano;Estrato 3;OFICIAL;A;MIXTO;A;0.72;0.707;0.7116;0.7092;0.7533;0.7172;3
105360000296;INSTITUCION EDUCATIVA ANTONIO JOSE DE SUCRE;6.167294206;-75.61643613;ANTIOQUIA;ITAGÜÍ;Urbano;Estrato 3;OFICIAL;A;MIXTO;A;0.7623;0.7433;0.7536;0.7714;0.7779;0.7718;3
105360000318;INSTITUCION EDUCATIVA JOHN F. KENNEDY;6.163964959;-75.62438068;ANTIOQUIA;ITAGÜÍ;Urbano;Estrato 3;OFICIAL;A;MIXTO;B;0.6972;0.6763;0.6804;0.6931;0.7361;0.705;3
105360000385;INSTITUCION EDUCATIVA ISOLDA ECHAVARRIA;6.168106433;-75.62596721;ANTIOQUIA;ITAGÜÍ;Urbano;Estrato 3;OFICIAL;A;MIXTO;B;0.7165;0.717;0.717;0.6936;0.7424;0.7046;3
105360000415;I.E. JUAN NEPOMUCENO CADAVID;6.169446374;-75.60983662;ANTIOQUIA;ITAGÜÍ;Urbano;Estrato 2;OFICIAL;A;MASCULINO;B;0.6741;0.6432;0.6646;0.6703;0.7193;0.671;0
105360000431;INSTITUCION EDUCATIVA EL ROSARIO;6.178326292;-75.61329291;ANTIOQUIA;ITAGÜÍ;Urbano;Estrato 2;OFICIAL;A;MIXTO;C;0.6588;0.646;0.6556;0.6454;0.6976;0.6304;1
105360000474;INSTITUCION EDUCATIVA FELIPE DE RESTREPO;6.162257266;-75.6210259;ANTIOQUIA;ITAGÜÍ;Urbano;Estrato 3;OFICIAL;A;MIXTO;B;0.7143;0.6967;0.7089;0.7095;0.7431;0.7116;3
105360000491;INSTITUCIÓN EDUCATIVA ORESTE SINDICI;6.184467291;-75.59399381;ANTIOQUIA;ITAGÜÍ;Urbano;Estrato 3;OFICIAL;A;MIXTO;B;0.707;0.6971;0.6887;0.6983;0.7444;0.706;4
105360000628;INSTITUCION EDUCATIVA AVELINO SALDARRIAGA;6.168211467;-75.61676689;ANTIOQUIA;ITAGÜÍ;Urbano;Estrato 2;OFICIAL;A;MIXTO;B;0.7019;0.685;0.6925;0.6935;0.7367;0.7011;1
105360000857;I.E. LUIS CARLOS GALAN;6.173945622;-75.62890348;ANTIOQUIA;ITAGÜÍ;Urbano;Estrato 2;OFICIAL;A;MIXTO;A;0.7256;0.7269;0.7138;0.7127;0.7546;0.7086;1
105360001055;INSTITUCION EDUCATIVA DIEGO ECHAVARRIA MISAS;6.1697921;-75.60983243;ANTIOQUIA;ITAGÜÍ;Urbano;Estrato 3;OFICIAL;A;MIXTO;A;0.7289;0.7188;0.7199;0.7203;0.7664;0.7004;3
105360001063;INSTITUCION EDUCATIVA MARIA JESUS MEJIA;6.169751512;-75.6073159;ANTIOQUIA;ITAGÜÍ;Urbano;Estrato 3;OFICIAL;A;MIXTO;B;0.7125;0.6867;0.7112;0.7046;0.7457;0.7178;3
105360001098;INSTITUCION EDUCATIVA SIMON BOLIVAR;6.179071757;-75.59916938;ANTIOQUIA;ITAGÜÍ;Urbano;Estrato 3;OFICIAL;A;MIXTO;B;0.7095;0.6837;0.6984;0.7003;0.7507;0.724;3
105360001357;INSTITUCION EDUCATIVA LOMA LINDA;6.182096155;-75.60856135;ANTIOQUIA;ITAGÜÍ;Urbano;Estrato 2;OFICIAL;A;MIXTO;B;0.7109;0.6951;0.7042;0.6975;0.7489;0.7042;1
105360001390;INSTITUCION EDUCATIVA CARLOS ENRIQUE CORTES;6.1799335;-75.60345286;ANTIOQUIA;ITAGÜÍ;Urbano;Estrato 2;OFICIAL;A;MIXTO;B;0.6887;0.6657;0.6896;0.6817;0.7206;0.6801;1
105360001934;INSTITUCION EDUCATIVA MARCELIANA SALDARRIAGA;6.184404118;-75.59989588;ANTIOQUIA;ITAGÜÍ;Urbano;Estrato 2;OFICIAL;A;MIXTO;A;0.726;0.7082;0.7034;0.7322;0.7619;0.7214;1
105360002141;I.E. BENEDIKTA ZUR NIEDEN;6.191610214;-75.59866607;ANTIOQUIA;ITAGÜÍ;Rural;Estrato 3;OFICIAL;A;MIXTO;B;0.6948;0.6876;0.6903;0.6715;0.728;0.6995;3
105360002299;I.E. CIUDAD ITAGUI;6.180833;-75.599722;ANTIOQUIA;ITAGÜÍ;Urbano;Estrato 2;OFICIAL;A;MIXTO;B;0.681;0.6503;0.6639;0.6762;0.7333;0.6812;1
105361000443;I. E. PEDRO NEL OSPINA;7.167367126;-75.76381199;ANTIOQUIA;ITUANGO;Urbano;Estrato 2;OFICIAL;A;MIXTO;D;0.6141;0.5887;0.6058;0.6177;0.6542;0.5836;1
105364000401;I. E. SAN ANTONIO;5.596651782;-75.81378428;ANTIOQUIA;JARDÍN;Urbano;Estrato 2;OFICIAL;A;MIXTO;A;0.7357;0.7321;0.7429;0.7306;0.7539;0.6849;1
105368000015;I. E. SAN JOSE;5.790459728;-75.78740753;ANTIOQUIA;JERICÓ;Urbano;Estrato 2;OFICIAL;A;MIXTO;A;0.728;0.7337;0.7088;0.7098;0.7562;0.7379;1
105368000066;I. E. ESCUELA NORMAL SUPERIOR DE JERICO;5.793517376;-75.78715279;ANTIOQUIA;JERICÓ;Urbano;Estrato 2;OFICIAL;A;MIXTO;B;0.7145;0.7052;0.7158;0.7013;0.7453;0.6855;1
105376000105;I. E. MARIA JOSEFA MARULANDA;6.026208009;-75.43391808;ANTIOQUIA;LA CEJA;Urbano;Estrato 3;OFICIAL;A;MIXTO;A;0.7647;0.7889;0.7679;0.7399;0.7664;0.7522;4
105376000113;I. E. MONSEÑOR ALFONSO URIBE JARAMILLO;6.029722;-75.427778;ANTIOQUIA;LA CEJA;Urbano;Estrato 3;OFICIAL;A;MIXTO;A;0.7253;0.7317;0.7322;0.7052;0.7362;0.713;4
105376000211;I. E. BERNARDO URIBE LONDOÑO;6.030146381;-75.42262903;ANTIOQUIA;LA CEJA;Urbano;Estrato 3;OFICIAL;A;MIXTO;B;0.6885;0.7024;0.6812;0.6638;0.7069;0.6882;3
105376000571;I. E.   CONCEJO MUNICIPAL;6.022778;-75.435833;ANTIOQUIA;LA CEJA;Urbano;Estrato 2;OFICIAL;A;MIXTO;A;0.7345;0.7336;0.732;0.718;0.7566;0.7272;0
105380000063;I. E. BERNARDO ARANGO MACIAS;6.156221418;-75.64362569;ANTIOQUIA;LA ESTRELLA;Urbano;Estrato 3;OFICIAL;A;MIXTO;B;0.698;0.6814;0.6752;0.6983;0.7433;0.6788;4
105380000527;I. E. CONCEJO MUNICIPAL;6.150763005;-75.63929459;ANTIOQUIA;LA ESTRELLA;Urbano;Estrato 2;OFICIAL;A;MIXTO;B;0.6996;0.6959;0.6923;0.688;0.7257;0.6893;1
105387000077;I. E.  CARLOS ARTURO DUQUE RAMIREZ;6.185623561;-74.584391;ANTIOQUIA;PUERTO NARE;Urbano;Estrato 2;OFICIAL;A;MIXTO;C;0.657;0.6643;0.648;0.6295;0.6912;0.6417;1
105400000120;I. E. FELIX MARIA RESTREPO LONDOÑO;5.974123612;-75.36025938;ANTIOQUIA;LA UNIÓN;Urbano;Estrato 2;OFICIAL;A;MIXTO;B;0.6733;0.6714;0.6722;0.654;0.6958;0.673;0
105400000189;I. E. PIO XI;5.971717196;-75.36171249;ANTIOQUIA;LA UNIÓN;Urbano;Estrato 2;OFICIAL;A;MIXTO;B;0.7108;0.712;0.7193;0.6915;0.7343;0.6691;0
105411000199;I. E. SAN FRANCISCO DE ASIS;6.67718524;-75.81344469;ANTIOQUIA;LIBORINA;Urbano;Estrato 2;OFICIAL;A;MIXTO;C;0.6412;0.6451;0.6341;0.6259;0.6798;0.5811;0
105425000019;I. E. FILIBERTO RESTREPO SIERRA;6.55;-74.783056;ANTIOQUIA;MACEO;Urbano;Estrato 2;OFICIAL;A;MIXTO;B;0.6754;0.6606;0.682;0.6642;0.6973;0.6681;0
105440000068;I. E. ROMAN GOMEZ;6.175566823;-75.34313403;ANTIOQUIA;MARINILLA;Urbano;Estrato 3;OFICIAL;A;MIXTO;B;0.7047;0.7075;0.6959;0.6857;0.7293;0.7056;3
105440000131;I. E. SAN JOSE;6.171807124;-75.33293943;ANTIOQUIA;MARINILLA;Urbano;Estrato 2;OFICIAL;A;MIXTO;B;0.7103;0.7248;0.7026;0.695;0.7323;0.6697;1
105440000386;I. E. NORMAL SUPERIOR RAFAEL MARIA GIRALDO;6.174346775;-75.34148373;ANTIOQUIA;MARINILLA;Urbano;Estrato 3;OFICIAL;A;MIXTO;A;0.7398;0.7338;0.7307;0.7288;0.7667;0.7375;3
105440000408;I. E. R. TECNICO DE MARINILLA;6.174167;-75.322778;ANTIOQUIA;MARINILLA;Rural;Estrato 2;OFICIAL;A;MIXTO;B;0.7149;0.7085;0.723;0.6945;0.7325;0.7174;0
105440000467;I. E. TECNICO INDUSTRIAL SIMONA DUQUE;6.173309494;-75.33695273;ANTIOQUIA;MARINILLA;Urbano;Estrato 3;OFICIAL;A;MIXTO;A;0.7491;0.7613;0.7519;0.7277;0.7616;0.7314;3
105467000019;I. E. MARIANO J. VILLEGAS;5.944137328;-75.52219712;ANTIOQUIA;MONTEBELLO;Urbano;Estrato 1;OFICIAL;A;MIXTO;B;0.7135;0.7119;0.7109;0.7099;0.736;0.6693;5
105475000125;I. E. MURINDO;6.977085741;-76.81703599;ANTIOQUIA;MURINDÓ;Urbano;Estrato 1;OFICIAL;A;MIXTO;D;0.5694;0.5507;0.5721;0.5522;0.6047;0.5626;2
105480000010;I. E. MUTATA;7.242369081;-76.43687536;ANTIOQUIA;MUTATÁ;Urbano;Estrato 1;OFICIAL;A;MIXTO;C;0.6575;0.6509;0.6442;0.6587;0.6905;0.6144;5
105483000347;I. E. INMACULADA CONCEPCION;5.610833;-75.174722;ANTIOQUIA;NARIÑO;Urbano;Estrato 2;OFICIAL;A;MIXTO;D;0.613;0.5998;0.6295;0.5936;0.6447;0.5669;0
105490000018;I. E. EDUARDO ESPITIA ROMERO;8.429718493;-76.78334746;ANTIOQUIA;NECOCLÍ;Urbano;Estrato 1;OFICIAL;A;MIXTO;B;0.6761;0.6827;0.6599;0.6622;0.707;0.654;5
105490000026;I. E. ANTONIO ROLDAN BETANCUR;8.426130956;-76.78415725;ANTIOQUIA;NECOCLÍ;Urbano;Estrato 1;OFICIAL;A;MIXTO;C;0.6532;0.6377;0.6395;0.6546;0.6868;0.6356;2
105495000024;I. E. NECHI;8.092637614;-74.77339635;ANTIOQUIA;NECHÍ;Urbano;Estrato 1;OFICIAL;A;MIXTO;D;0.6191;0.5901;0.6234;0.6141;0.6595;0.5875;2
105501000198;I. E.  OLAYA;6.627114907;-75.81239527;ANTIOQUIA;OLAYA;Urbano;Estrato 2;OFICIAL;A;MIXTO;D;0.6035;0.6013;0.5817;0.5905;0.6508;0.5724;0
105541000026;I. E.  LEON XIII;6.220233371;-75.24462987;ANTIOQUIA;PEÑOL;Urbano;Estrato 2;OFICIAL;A;MIXTO;A;0.7281;0.7448;0.7175;0.7189;0.738;0.7079;1
105543000325;I. E. PRESBITERO RODRIGO LOPERA GIL;7.021026963;-75.9097783;ANTIOQUIA;PEQUE;Urbano;Estrato 1;OFICIAL;A;MIXTO;B;0.6707;0.6577;0.655;0.6759;0.7033;0.6433;5
105576000096;I. E. EL SALVADOR;5.790881386;-75.83681614;ANTIOQUIA;PUEBLORRICO;Urbano;Estrato 2;OFICIAL;A;MIXTO;B;0.7147;0.709;0.7166;0.7035;0.7343;0.7004;0
105579000160;I. E. BOMBONA;6.483611;-74.408333;ANTIOQUIA;PUERTO BERRÍO;Urbano;Estrato 1;OFICIAL;A;MIXTO;D;0.5671;0.5531;0.5684;0.5402;0.6054;0.5712;2
105579000186;I. E. ALFONSO LOPEZ PUMAREJO;6.48850077;-74.40308513;ANTIOQUIA;PUERTO BERRÍO;Urbano;Estrato 2;OFICIAL;A;MIXTO;C;0.6407;0.6376;0.6277;0.627;0.6789;0.6159;0
105579000259;I. E. AMERICA;6.483611;-74.408333;ANTIOQUIA;PUERTO BERRÍO;Urbano;Estrato 1;OFICIAL;A;MIXTO;D;0.6157;0.6063;0.5976;0.6029;0.6657;0.5866;2
105579000909;I. E. ESCUELA NORMAL SUPERIOR DEL MAGDALENA MEDIO;6.492430082;-74.4075701;ANTIOQUIA;PUERTO BERRÍO;Urbano;Estrato 2;OFICIAL;A;MIXTO;B;0.6823;0.6656;0.6665;0.6745;0.7195;0.6911;1
105591000027;I. E. PABLO VI;5.872764346;-74.64132954;ANTIOQUIA;PUERTO TRIUNFO;Urbano;Estrato 2;OFICIAL;A;MIXTO;B;0.6898;0.681;0.6928;0.6789;0.7185;0.6534;1
105607000022;I. E. IGNACIO BOTERO VALLEJO;6.062321471;-75.50201282;ANTIOQUIA;RETIRO;Urbano;Estrato 3;OFICIAL;A;MIXTO;B;0.7068;0.7119;0.7177;0.6736;0.7217;0.7141;4
105615000228;I. E. JOSE MARIA CORDOBA;6.1426482;-75.37198017;ANTIOQUIA;RIONEGRO;Urbano;Estrato 2;OFICIAL;A;MIXTO;B;0.7121;0.7136;0.7134;0.6934;0.7297;0.7066;1
105615000236;I. E. ESCUELA NORMAL SUPERIOR DE MARIA;6.143536751;-75.37257954;ANTIOQUIA;RIONEGRO;Urbano;Estrato 2;OFICIAL;A;MIXTO;D;0.5551;0.5229;0.5524;0.544;0.6003;0.5571;1
105615000473;I. E. JOSEFINA MUÑOZ GONZALEZ;6.155217604;-75.36948379;ANTIOQUIA;RIONEGRO;Urbano;Estrato 2;OFICIAL;A;MIXTO;A;0.7497;0.7492;0.7406;0.7364;0.7694;0.76;1
105615000627;I. E. TECNICO INDUSTRIAL SANTIAGO DE ARMA;6.144174089;-75.3735491;ANTIOQUIA;RIONEGRO;Urbano;Estrato 3;OFICIAL;A;MIXTO;A+;0.8107;0.8437;0.8104;0.7867;0.8045;0.8026;3
105615001062;I. E. CONCEJO MUNICIPAL EL PORVENIR;6.146747988;-75.38754601;ANTIOQUIA;RIONEGRO;Urbano;Estrato 3;OFICIAL;A;MIXTO;B;0.7122;0.704;0.7023;0.6989;0.7359;0.7348;4
105628000227;I. E. SAN JOSE;6.847185048;-75.81681812;ANTIOQUIA;SABANALARGA;Urbano;Estrato 2;OFICIAL;A;MIXTO;C;0.6448;0.6377;0.6442;0.6465;0.6556;0.631;0
105631000050;I. E. ADELAIDA CORREA ESTRADA;6.151993542;-75.61299831;ANTIOQUIA;SABANETA;Urbano;Estrato 3;OFICIAL;A;MIXTO;A;0.7638;0.7577;0.7607;0.7515;0.7798;0.7803;4
105631000068;I. E. RAFAEL J. MEJIA;6.148314773;-75.61866772;ANTIOQUIA;SABANETA;Urbano;Estrato 3;OFICIAL;A;MIXTO;A;0.7368;0.7225;0.7296;0.7388;0.7603;0.7248;4
105631000084;I. E. JOSE FELIX DE RESTREPO VELEZ;6.149780926;-75.62065182;ANTIOQUIA;SABANETA;Urbano;Estrato 3;OFICIAL;A;MIXTO;A;0.7482;0.7473;0.7491;0.7392;0.7656;0.7228;4
105631000106;I. E.  MARIA MEDIADORA;6.160328811;-75.60316099;ANTIOQUIA;SABANETA;Urbano;Estrato 3;OFICIAL;A;MIXTO;A;0.7519;0.7509;0.7562;0.7358;0.7635;0.7558;4
105631000491;I. E. CONCEJO DE SABANETA JOSE MARIA CEBALLOS BOTERO;6.153229228;-75.6066666;ANTIOQUIA;SABANETA;Urbano;Estrato 2;OFICIAL;A;MIXTO;A;0.748;0.7385;0.7388;0.7516;0.7615;0.7525;0
105642000019;I. E.  JULIO RESTREPO;5.965785563;-75.98174393;ANTIOQUIA;SALGAR;Urbano;Estrato 2;OFICIAL;A;MIXTO;C;0.6665;0.6541;0.6691;0.6579;0.7013;0.6178;0
105649000014;I. E. JOAQUIN CARDENAS GOMEZ;6.189375101;-74.98784414;ANTIOQUIA;SAN CARLOS;Urbano;Estrato 2;OFICIAL;A;MIXTO;B;0.7017;0.7001;0.6923;0.6872;0.7353;0.6774;0
105656000143;I. E.  ESCUELA NORMAL SUPERIOR GENOVEVA DIAZ;6.441811769;-75.72710929;ANTIOQUIA;SAN JERÓNIMO;Urbano;Estrato 2;OFICIAL;A;MIXTO;B;0.6882;0.6694;0.6939;0.6871;0.7126;0.6577;1
105658000124;I. E. FRANCISCO ABEL GALLEGO;6.848979643;-75.68644834;ANTIOQUIA;SAN JOSÉ DE LA MONTAÑA;Urbano;Estrato 2;OFICIAL;A;MIXTO;C;0.6383;0.6215;0.6389;0.6237;0.6699;0.636;1
105660000271;I. E. SAN LUIS;6.042838164;-74.99056154;ANTIOQUIA;SAN LUIS;Urbano;Estrato 2;OFICIAL;A;MIXTO;B;0.7117;0.7143;0.7063;0.6997;0.7392;0.6742;0
105664000187;I. E. PIO XII;6.455110423;-75.55639214;ANTIOQUIA;SAN PEDRO DE LOS MILAGROS;Urbano;Estrato 2;OFICIAL;A;MIXTO;B;0.6721;0.6711;0.6716;0.6486;0.7068;0.6425;1
105664000292;I.E. PADRE ROBERTO ARROYAVE VELEZ;6.460283348;-75.55793663;ANTIOQUIA;SAN PEDRO DE LOS MILAGROS;Urbano;Estrato 2;OFICIAL;A;MIXTO;B;0.6851;0.6809;0.6874;0.6694;0.7104;0.6623;0
105665000024;I. E. CAMILO TORRES;8.280056867;-76.38072645;ANTIOQUIA;SAN PEDRO DE URABÁ;Urbano;Estrato 1;OFICIAL;A;MIXTO;B;0.7009;0.7041;0.7018;0.7027;0.7111;0.652;2
105665000041;I. E. SAN PEDRO DE URABA;8.279129452;-76.37913933;ANTIOQUIA;SAN PEDRO DE URABÁ;Urbano;Estrato 1;OFICIAL;A;MIXTO;C;0.6362;0.6321;0.6333;0.6246;0.6654;0.6043;5
105667000013;I. E. SAN RAFAEL;6.296395427;-75.02157041;ANTIOQUIA;SAN RAFAEL;Urbano;Estrato 2;OFICIAL;A;MIXTO;B;0.6953;0.6988;0.6897;0.6738;0.716;0.7039;1
105670000415;I. E. PRESBITERO ABRAHAN JARAMILLO;6.486290689;-75.01947164;ANTIOQUIA;SAN ROQUE;Urbano;Estrato 2;OFICIAL;A;MIXTO;C;0.6595;0.6652;0.6592;0.6339;0.6904;0.6272;1
105670000938;I. E. NORMAL SUPERIOR DE SAN ROQUE;6.485939559;-75.01905531;ANTIOQUIA;SAN ROQUE;Urbano;Estrato 2;OFICIAL;A;MIXTO;C;0.6531;0.6418;0.6393;0.6445;0.6925;0.6362;1
105674000053;I. E. SAN VICENTE FERRER;6.27942251;-75.3322053;ANTIOQUIA;SAN VICENTE FERRER;Urbano;Estrato 2;OFICIAL;A;MIXTO;A;0.7391;0.7529;0.7373;0.7226;0.7522;0.713;1
105679000426;I. E. TOMAS EASTMAN;5.872222;-75.564167;ANTIOQUIA;SANTA BÁRBARA;Rural;Estrato 2;OFICIAL;A;MIXTO;B;0.6961;0.7019;0.6938;0.6768;0.723;0.6625;0
105679000485;I. E. JESUS MARIA ROJAS  PAGOLA;5.874303457;-75.56651613;ANTIOQUIA;SANTA BÁRBARA;Urbano;Estrato 2;OFICIAL;A;MIXTO;B;0.6945;0.6938;0.6799;0.6883;0.7279;0.6582;0
105686000385;I.E. MARCO TOBÓN MEJÍA;6.645914047;-75.46250634;ANTIOQUIA;SANTA ROSA DE OSOS;Urbano;Estrato 2;OFICIAL;A;MIXTO;C;0.6689;0.6681;0.664;0.6601;0.6964;0.6299;0
105686000440;I. E. ESCUELA NORMAL SUPERIOR PEDRO JUSTO BERRIO;6.649327576;-75.46008235;ANTIOQUIA;SANTA ROSA DE OSOS;Urbano;Estrato 2;OFICIAL;A;MIXTO;A;0.7603;0.7573;0.7583;0.7672;0.7647;0.741;1
105686000474;I. E. CARDENAL ANIBAL MUÑOZ DUQUE;6.645959169;-75.46522487;ANTIOQUIA;SANTA ROSA DE OSOS;Urbano;Estrato 2;OFICIAL;A;MIXTO;D;0.5828;0.5555;0.5775;0.576;0.632;0.5536;1
105690000322;I. E. TECNICO INDUSTRIAL TOMAS CARRASQUILLA;6.474373588;-75.1650634;ANTIOQUIA;SANTO DOMINGO;Urbano;Estrato 2;OFICIAL;A;MIXTO;B;0.7069;0.7081;0.7075;0.6908;0.7356;0.6642;1
105697000069;I. E. PBRO. LUIS RODOLFO GOMEZ;6.135716347;-75.27584744;ANTIOQUIA;EL SANTUARIO;Urbano;Estrato 2;OFICIAL;A;MIXTO;B;0.7115;0.7079;0.6928;0.7021;0.7436;0.7105;1
105736000055;I. E.  SANTO DOMINGO SAVIO;7.080851886;-74.69831048;ANTIOQUIA;SEGOVIA;Urbano;Estrato 1;OFICIAL;A;MIXTO;C;0.6311;0.6254;0.6116;0.6196;0.6753;0.6082;2
105756000493;I. E. BRAULIO MEJIA;5.715185329;-75.30812577;ANTIOQUIA;SONSÓN;Urbano;Estrato 1;OFICIAL;A;MIXTO;C;0.6637;0.662;0.6563;0.6543;0.6876;0.6481;5
105756000507;I. E. ROSA MARIA HENAO PAVAS;5.707247221;-75.31232422;ANTIOQUIA;SONSÓN;Urbano;Estrato 2;OFICIAL;A;MIXTO;C;0.6522;0.6288;0.6681;0.6424;0.6775;0.628;1
105761000299;I. E. ESCUELA NORMAL SUPERIOR SANTA TERESITA;6.500347252;-75.74092389;ANTIOQUIA;SOPETRÁN;Urbano;Estrato 2;OFICIAL;A;MIXTO;C;0.6583;0.6512;0.6412;0.6687;0.6837;0.6231;1
105761000329;I. E. JOSE MARIA VILLA;6.500972586;-75.74387317;ANTIOQUIA;SOPETRÁN;Urbano;Estrato 2;OFICIAL;A;MIXTO;C;0.6491;0.6401;0.6554;0.628;0.6836;0.6168;0
105789000235;I. E. SAN ANTONIO DE PADUA;5.665;-75.714167;ANTIOQUIA;TÁMESIS;Urbano;Estrato 2;OFICIAL;A;MIXTO;C;0.659;0.6466;0.6605;0.6491;0.6871;0.6374;0
105790000184;I. E. RAFAEL NUÑEZ;7.580278;-75.398611;ANTIOQUIA;TARAZÁ;Urbano;Estrato 1;OFICIAL;A;MIXTO;C;0.6623;0.6417;0.6593;0.6607;0.6964;0.6358;2
105790000206;I. E. ANTONIO ROLDAN BETANCUR;7.583839394;-75.40234398;ANTIOQUIA;TARAZÁ;Urbano;Estrato 1;OFICIAL;A;MIXTO;B;0.6786;0.6801;0.6692;0.662;0.7084;0.6624;5
105792000190;I. E. JOSE PRIETO ARANGO;5.863680114;-75.82540791;ANTIOQUIA;TARSO;Urbano;Estrato 2;OFICIAL;A;MIXTO;B;0.676;0.6776;0.6717;0.6624;0.7025;0.6448;0
105809000016;I. E. SANTO TOMAS DE AQUINO;6.061818794;-75.79364026;ANTIOQUIA;TITIRIBÍ;Urbano;Estrato 2;OFICIAL;A;MIXTO;B;0.6862;0.6649;0.68;0.6896;0.7213;0.6533;0
105837000153;I.E. ANGEL MILAN PEREA;8.089401925;-76.72720645;ANTIOQUIA;TURBO;Urbano;Estrato 1;OFICIAL;A;MIXTO;D;0.5548;0.54;0.5404;0.5345;0.6036;0.5567;5
105837000242;I.E. SAN MARTIN DE PORRES;8.092622682;-76.72578171;ANTIOQUIA;TURBO;Urbano;Estrato 1;OFICIAL;A;MIXTO;D;0.5808;0.5537;0.5897;0.5669;0.6223;0.5535;5
105837001150;I.E. SAGRADO CORAZÓN DE JESÚS;8.093308805;-76.72490136;ANTIOQUIA;TURBO;Urbano;Estrato 2;OFICIAL;A;MIXTO;D;0.5827;0.5532;0.5754;0.5644;0.6363;0.5877;0
105837003870;I.E. SANTA FE;8.097009428;-76.73792984;ANTIOQUIA;TURBO;Urbano;Estrato 1;OFICIAL;A;MIXTO;D;0.5892;0.578;0.5903;0.5648;0.6325;0.5633;5
105837004922;I.E. FRANCISCO LUIS VALDERRAMA VALDERRAMA;8.093444263;-76.72211688;ANTIOQUIA;TURBO;Urbano;Estrato 1;OFICIAL;A;MIXTO;D;0.6092;0.5878;0.6043;0.5974;0.66;0.5714;5
105837006097;I.E. TURBO;8.091357812;-76.71978668;ANTIOQUIA;TURBO;Urbano;Estrato 1;OFICIAL;A;MIXTO;D;0.5777;0.5529;0.5764;0.5608;0.6202;0.5795;5
105837006194;I.E. NORMAL SUPERIOR DE URABA;8.100097669;-76.71650435;ANTIOQUIA;TURBO;Urbano;Estrato 1;OFICIAL;A;MIXTO;C;0.6437;0.624;0.6416;0.6309;0.6896;0.6093;5
105842000382;I. E. SAN JOSE;6.900166924;-76.17412549;ANTIOQUIA;URAMITA;Urbano;Estrato 1;OFICIAL;A;MIXTO;C;0.6536;0.6509;0.6393;0.6525;0.6947;0.5851;2
105847000241;I. E. R. JAIPERA;6.326552063;-76.13523432;ANTIOQUIA;URRAO;Urbano;Estrato 2;OFICIAL;A;MIXTO;D;0.61;0.6137;0.5943;0.5871;0.6532;0.5845;1
105847000771;I. E. ESCUELA NORMAL SUPERIOR SAGRADA FAMILIA;6.315982747;-76.13617928;ANTIOQUIA;URRAO;Urbano;Estrato 2;OFICIAL;A;MIXTO;B;0.705;0.7067;0.6948;0.6999;0.7358;0.6539;1
105847001204;I. E. MONSEÑOR J. IVAN CADAVID GUTIERREZ;6.313056;-76.130833;ANTIOQUIA;URRAO;Urbano;Estrato 1;OFICIAL;A;MIXTO;C;0.6592;0.6515;0.6524;0.6581;0.6889;0.6167;5
105854000302;I. E. VALDIVIA;7.291111;-75.391944;ANTIOQUIA;VALDIVIA;Urbano;Estrato 1;OFICIAL;A;MIXTO;C;0.632;0.6105;0.6371;0.6314;0.6596;0.6007;5
105856000296;I. E. RAFAEL URIBE URIBE;5.616189269;-75.62289962;ANTIOQUIA;VALPARAÍSO;Urbano;Estrato 2;OFICIAL;A;MIXTO;B;0.6843;0.6996;0.6685;0.6765;0.7023;0.6549;1
105858000137;I. E. EFE GOMEZ;6.76999;-74.79693899;ANTIOQUIA;VEGACHÍ;Urbano;Estrato 2;OFICIAL;A;MIXTO;C;0.6524;0.6452;0.6376;0.6396;0.6936;0.6329;0
105861000199;I. E. SAN JOSE DE VENECIA;5.960067257;-75.73465947;ANTIOQUIA;VENECIA;Urbano;Estrato 2;OFICIAL;A;MIXTO;B;0.6767;0.6738;0.6569;0.6725;0.7187;0.6316;0
105885000025;I. E. LORENZO YALI;6.675942921;-74.84321148;ANTIOQUIA;YALÍ;Urbano;Estrato 2;OFICIAL;A;MIXTO;B;0.6837;0.6806;0.662;0.6819;0.7162;0.6659;0
105887000600;I. E. SAN LUIS;6.965532489;-75.41588948;ANTIOQUIA;YARUMAL;Urbano;Estrato 2;OFICIAL;A;MIXTO;A;0.73;0.7345;0.7222;0.7302;0.7515;0.6746;1
105890000203;I. E. EDUARDO AGUILAR;6.597318998;-75.01176779;ANTIOQUIA;YOLOMBÓ;Urbano;Estrato 2;OFICIAL;A;MIXTO;C;0.633;0.6233;0.6273;0.62;0.6727;0.5989;1
105890001331;I. E. ESCUELA NORMAL SUPERIOR DEL NORDESTE;6.59311787;-75.01611471;ANTIOQUIA;YOLOMBÓ;Urbano;Estrato 2;OFICIAL;A;MIXTO;C;0.6548;0.6664;0.6263;0.6429;0.6965;0.6159;1
105893001685;I. E. LUIS EDUARDO DIAZ;7.011612527;-73.90778738;ANTIOQUIA;YONDÓ;Urbano;Estrato 1;OFICIAL;A;MIXTO;C;0.6485;0.6471;0.6586;0.6198;0.6726;0.6362;5
105895000091;I. E. FRANCISCO DE PAULA SANTANDER;7.492154457;-74.86729037;ANTIOQUIA;ZARAGOZA;Urbano;Estrato 1;OFICIAL;A;MIXTO;C;0.6309;0.6416;0.6459;0.6023;0.6531;0.5724;5
105895001160;I. E. SANTO CRISTO DE ZARAGOZA;7.492773753;-74.86532865;ANTIOQUIA;ZARAGOZA;Urbano;Estrato 1;OFICIAL;A;MIXTO;C;0.6201;0.6235;0.6049;0.6139;0.6479;0.5903;2
205001001672;INST EDUC MONSE?OR VICTOR WIEDEMANN;6.183907314;-75.64203172;ANTIOQUIA;MEDELLÍN;Rural;Estrato 2;OFICIAL;A;MIXTO;A;0.7258;0.7184;0.7262;0.7144;0.7516;0.7037;1
205001002199;INST EDUC CARLOS ALBERTO CALDERON;6.295782;-75.649905;ANTIOQUIA;MEDELLÍN;Rural;Estrato 2;OFICIAL;A;MIXTO;C;0.6582;0.636;0.6545;0.6563;0.6875;0.6532;1
205001006232;INST EDUC  SAN CRISTOBAL;6.28049522;-75.63671505;ANTIOQUIA;MEDELLÍN;Rural;Estrato 2;OFICIAL;A;MIXTO;B;0.7089;0.6982;0.7028;0.7017;0.7437;0.676;1
205001006526;INST EDUC MARINA ORTH;6.232226;-75.643899;ANTIOQUIA;MEDELLÍN;Rural;Estrato 2;OFICIAL;A;MIXTO;C;0.626;0.6044;0.6214;0.6177;0.6589;0.6301;0
205001007735;INST EDUC HECTOR ROGELIO MONTOYA;6.34349;-75.688491;ANTIOQUIA;MEDELLÍN;Rural;Estrato 2;OFICIAL;A;MIXTO;B;0.6726;0.6661;0.6806;0.6706;0.6904;0.6203;1
205001009797;INST EDUC MANUEL J. BETANCUR;6.185199;-75.655146;ANTIOQUIA;MEDELLÍN;Rural;Estrato 2;OFICIAL;A;MIXTO;A;0.7461;0.7542;0.7382;0.7297;0.7668;0.7333;0
205001010264;I.E. PRESBITERO JUAN J. ESCOBAR;6.278336646;-75.63480774;ANTIOQUIA;MEDELLÍN;Rural;Estrato 2;OFICIAL;A;MIXTO;B;0.67;0.6541;0.6807;0.6622;0.6935;0.6387;0
205001010281;INST EDUC ALFONSO UPEGUI OROZCO;6.287512;-75.610499;ANTIOQUIA;MEDELLÍN;Rural;Estrato 2;OFICIAL;A;MIXTO;B;0.7131;0.6914;0.706;0.719;0.7435;0.6904;1
205001011031;INST EDUC SANTA ELENA;6.206071;-75.49192;ANTIOQUIA;MEDELLÍN;Rural;Estrato 2;OFICIAL;A;MIXTO;A;0.7662;0.7801;0.7616;0.7596;0.7731;0.7372;1
205001012534;INST EDUC SAN ANTONIO DE PRADO;6.184371;-75.655945;ANTIOQUIA;MEDELLÍN;Rural;Estrato 2;OFICIAL;A;MIXTO;A;0.7297;0.7432;0.7125;0.7049;0.7551;0.7382;1
205001013514;INSTITUCION EDUCATIVA  MARTIN EDUARDO RIOS LLANOS;6.1725;-75.581111;ANTIOQUIA;ENVIGADO;Rural;Estrato 2;OFICIAL;A;MIXTO;D;0.6102;0.6042;0.6192;0.5801;0.6327;0.6245;0
205001018745;INST EDUC EL LIMONAR;6.172901;-75.646684;ANTIOQUIA;MEDELLÍN;Rural;Estrato 2;OFICIAL;A;MIXTO;C;0.6591;0.6385;0.6558;0.6555;0.6965;0.63;0
205001019318;INST EDUC SAN JOSE OBRERO;6.178201;-75.661364;ANTIOQUIA;MEDELLÍN;Rural;Estrato 2;OFICIAL;A;MIXTO;A;0.7224;0.7125;0.7085;0.711;0.7573;0.7231;1
205002000611;I. E. R. ZOILA DUQUE BAENA;5.790556;-75.504722;ANTIOQUIA;ABEJORRAL;Rural;Estrato 2;OFICIAL;A;MIXTO;C;0.6374;0.6073;0.655;0.6247;0.6698;0.6158;1
205002000777;I. E. R.  DE PANTANILLO;5.730694489;-75.48936068;ANTIOQUIA;ABEJORRAL;Rural;Estrato 2;OFICIAL;A;MIXTO;C;0.6607;0.6538;0.6604;0.6491;0.6869;0.6382;0
205030000189;I. E. LUIS CARLOS PARRA MOLINA;6.06440635;-75.70951334;ANTIOQUIA;AMAGÁ;Rural;Estrato 1;OFICIAL;A;MIXTO;D;0.5978;0.5682;0.5946;0.5938;0.6375;0.5893;2
205030000243;I. E. PASCUAL CORREA FLOREZ;6.055;-75.695556;ANTIOQUIA;AMAGÁ;Rural;Estrato 1;OFICIAL;A;MIXTO;B;0.6816;0.6576;0.7001;0.6698;0.7178;0.6249;2
205031000191;I. E. R. PORTACHUELO;6.799167;-74.925556;ANTIOQUIA;AMALFI;Rural;Estrato 1;OFICIAL;A;MIXTO;C;0.6295;0.6211;0.6336;0.625;0.6502;0.5944;2
205034000078;I. E. R. CARBONERA;5.6375;-75.848889;ANTIOQUIA;ANDES;Rural;Estrato 2;OFICIAL;A;MIXTO;C;0.6449;0.6194;0.6513;0.6357;0.6917;0.5886;0
205034000248;I. E. TAPARTO;5.654377623;-75.87751583;ANTIOQUIA;ANDES;Rural;Estrato 1;OFICIAL;A;MIXTO;C;0.666;0.6628;0.6649;0.6551;0.6938;0.6287;5
205034000256;I. E. SANTA RITA;5.613526123;-75.9164184;ANTIOQUIA;ANDES;Rural;Estrato 1;OFICIAL;A;MIXTO;C;0.6648;0.6672;0.6587;0.6544;0.6887;0.6361;2
205034000299;I. E. SAN JOSE;5.7353807;-75.87045959;ANTIOQUIA;ANDES;Rural;Estrato 2;OFICIAL;A;MIXTO;C;0.6315;0.6102;0.6262;0.6124;0.6795;0.6239;0
205034000345;I. E. FELIPE HENAO JARAMILLO;5.682128363;-75.83492234;ANTIOQUIA;ANDES;Rural;Estrato 1;OFICIAL;A;MIXTO;B;0.6734;0.6639;0.6443;0.6916;0.7108;0.6227;2
205034000787;C. E. R. LA MANUELA;5.735;-75.889722;ANTIOQUIA;ANDES;Rural;Estrato 1;OFICIAL;A;MIXTO;D;0.543;0.5164;0.554;0.531;0.5767;0.5248;6
205034001317;I. E. SAN PERUCHITO;5.646667;-75.940278;ANTIOQUIA;ANDES;Rural;Estrato 1;OFICIAL;A;MIXTO;B;0.6742;0.6714;0.6473;0.6579;0.7337;0.6342;2
205036000083;I. E. LOS ANGELES;6.10051827;-75.71029801;ANTIOQUIA;ANGELÓPOLIS;Rural;Estrato 1;OFICIAL;A;MIXTO;C;0.6675;0.6446;0.6713;0.6528;0.7035;0.6609;2
205038000439;C. E. R. PAJARITO ARRIBA;6.88;-75.345;ANTIOQUIA;ANGOSTURA;Rural;Estrato 1;OFICIAL;A;MIXTO;D;0.5438;0.5116;0.5442;0.5276;0.5973;0.528;6
205040001027;I. E. R. MONTEFRIO;6.975278;-75.169444;ANTIOQUIA;ANORÍ;Rural;Estrato 1;OFICIAL;A;MIXTO;D;0.5622;0.5475;0.5657;0.5377;0.6096;0.5267;6
205042000281;I. E. R. NURQUI;6.422778;-75.914444;ANTIOQUIA;SANTA FÉ DE ANTIOQUIA;Rural;Estrato 1;OFICIAL;A;MIXTO;D;0.5606;0.535;0.5793;0.5362;0.5962;0.5476;6
205042000354;C. E. R. EL PESCADO;6.512674664;-75.8934656;ANTIOQUIA;SANTA FÉ DE ANTIOQUIA;Rural;Estrato 1;OFICIAL;A;MIXTO;D;0.565;0.5593;0.5638;0.5404;0.6065;0.5343;6
205042000508;I. E. R. OGOSCO;6.562234078;-75.94948882;ANTIOQUIA;SANTA FÉ DE ANTIOQUIA;Rural;Estrato 1;OFICIAL;A;MIXTO;D;0.5507;0.5088;0.5513;0.5472;0.6065;0.5177;6
205044000017;I. E. R. ASCENSION MONTOYA DE TORRES;6.302382916;-75.95720891;ANTIOQUIA;ANZÁ;Rural;Estrato 1;OFICIAL;A;MIXTO;B;0.6788;0.6905;0.6858;0.658;0.6978;0.6275;2
205045000096;I.E.R. CHURIDO PUEBLO;7.865532387;-76.66705811;ANTIOQUIA;APARTADÓ;Rural;Estrato 1;OFICIAL;A;MIXTO;C;0.6325;0.6221;0.6239;0.6085;0.6754;0.6331;2
205045000134;I.E.R. EL REPOSO;7.800832;-76.655974;ANTIOQUIA;APARTADÓ;Rural;Estrato 1;OFICIAL;A;MIXTO;C;0.6578;0.6344;0.6619;0.6459;0.6929;0.6454;2
205045000193;I.E.R. BARTOLOMÉ CATAÑO VALLEJO;7.877753;-76.610307;ANTIOQUIA;APARTADÓ;Rural;Estrato 1;OFICIAL;A;MIXTO;D;0.6007;0.5598;0.5938;0.5989;0.6539;0.5897;2
205045000363;I. E. R. ZUNGO EMBARCADERO;7.751667;-76.656944;ANTIOQUIA;CAREPA;Rural;Estrato 1;OFICIAL;A;MIXTO;D;0.6078;0.5895;0.6269;0.5798;0.6372;0.6015;2
205045000576;I.E.R. PEDRONEL DURANGO;7.828731;-76.648901;ANTIOQUIA;APARTADÓ;Rural;Estrato 1;OFICIAL;A;MIXTO;C;0.6371;0.6328;0.626;0.6243;0.6691;0.6256;2
205045000801;I.E.R. PUERTO GIRON;7.905420085;-76.73767258;ANTIOQUIA;APARTADÓ;Rural;Estrato 1;OFICIAL;A;MIXTO;D;0.5932;0.5743;0.5864;0.5714;0.6436;0.5838;2
205051000014;I. E. SAN JUAN DE URABA;8.763106792;-76.52652148;ANTIOQUIA;SAN JUAN DE URABÁ;Urbano;Estrato 1;OFICIAL;A;MIXTO;C;0.6478;0.6292;0.6493;0.6439;0.6799;0.6147;5
205051000065;I. E. R. MONSEÑOR ESCOBAR VELEZ;8.739444;-76.606944;ANTIOQUIA;SAN JUAN DE URABÁ;Rural;Estrato 1;OFICIAL;A;MIXTO;D;0.6088;0.5986;0.6138;0.5941;0.6417;0.5691;2
205051000081;I. E. R. PAJILLAL;8.755;-76.453611;ANTIOQUIA;ARBOLETES;Rural;Estrato 1;OFICIAL;A;MIXTO;C;0.624;0.5988;0.635;0.6197;0.6474;0.6092;2
205051000758;I. E. R. UVEROS;8.746667;-76.580556;ANTIOQUIA;SAN JUAN DE URABÁ;Rural;Estrato 1;OFICIAL;A;MIXTO;D;0.5558;0.5351;0.5549;0.5372;0.5979;0.5502;2
205051001339;I. E. R. EL CARMELO;8.615278;-76.380833;ANTIOQUIA;ARBOLETES;Rural;Estrato 1;OFICIAL;A;MIXTO;D;0.586;0.5674;0.6165;0.565;0.596;0.5831;2
205051001347;I. E. R. BUENOS AIRES;8.611667;-76.283611;ANTIOQUIA;ARBOLETES;Rural;Estrato 1;OFICIAL;A;MIXTO;D;0.559;0.5457;0.5834;0.5308;0.5784;0.5515;2
205051001401;I. E. R. EL FILO DE DAMAQUIEL;8.769974;-76.526983;ANTIOQUIA;SAN JUAN DE URABÁ;Rural;Estrato 1;OFICIAL;A;MIXTO;D;0.5566;0.5251;0.549;0.5465;0.6052;0.5583;2
205051001959;I. E. R. LA CANDELARIA;8.658056;-76.453056;ANTIOQUIA;ARBOLETES;Rural;Estrato 1;OFICIAL;A;MIXTO;C;0.6277;0.6215;0.6399;0.6115;0.644;0.6092;2
205051002696;I. E. R. SANTA FE DE LAS PLATAS;8.814974;-76.453928;ANTIOQUIA;ARBOLETES;Rural;Estrato 1;OFICIAL;A;MIXTO;D;0.5837;0.5818;0.5902;0.5655;0.6039;0.564;2
205051002700;I. E. R. GUADUAL ARRIBA;8.486667;-76.384722;ANTIOQUIA;ARBOLETES;Rural;Estrato 1;OFICIAL;A;MIXTO;D;0.5885;0.5487;0.6079;0.5828;0.6198;0.5724;2
205055000281;I. E. R. PRESBITERO MARIO ANGEL;5.699444;-75.119722;ANTIOQUIA;ARGELIA;Rural;Estrato 1;OFICIAL;A;MIXTO;D;0.5734;0.581;0.5474;0.5528;0.6282;0.5259;6
205079000206;I. E. R. YARUMITO;6.472883159;-75.27342801;ANTIOQUIA;BARBOSA;Rural;Estrato 2;OFICIAL;A;MIXTO;C;0.6429;0.6325;0.6435;0.6292;0.6788;0.6059;1
205079000346;I. E. EL TABLAZO;6.418333;-75.410278;ANTIOQUIA;BARBOSA;Rural;Estrato 2;OFICIAL;A;MIXTO;C;0.6647;0.6571;0.6665;0.6504;0.7115;0.5852;0
205079000729;I. E. R. BUGA;6.450278;-75.335833;ANTIOQUIA;BARBOSA;Rural;Estrato 1;OFICIAL;A;MIXTO;D;0.5696;0.5428;0.5661;0.5546;0.6261;0.5366;6
205079000885;I. E. R. EL  HATILLO;6.413038525;-75.39326243;ANTIOQUIA;BARBOSA;Rural;Estrato 2;OFICIAL;A;MIXTO;D;0.6144;0.6008;0.6101;0.5934;0.6538;0.613;0
205086000033;I. E. R.  LABORES;6.71162617;-75.61248517;ANTIOQUIA;BELMIRA;Rural;Estrato 2;OFICIAL;A;MIXTO;C;0.6377;0.6354;0.6355;0.6152;0.6764;0.6021;0
205086000092;I. E. R. CARLOS GONZALEZ;6.520556;-75.603611;ANTIOQUIA;BELMIRA;Rural;Estrato 1;OFICIAL;A;MIXTO;B;0.6884;0.6985;0.7019;0.668;0.6963;0.6557;2
205088000120;I.E. SAN GABRIEL ARCÁNGEL;6.34695555;-75.5251119;ANTIOQUIA;BELLO;Urbano;Estrato 2;OFICIAL;A;MIXTO;C;0.6483;0.6231;0.6548;0.6289;0.6945;0.6244;0
205088000197;I.E. LA PRIMAVERA;6.345395289;-75.57349529;ANTIOQUIA;BELLO;Urbano;Estrato 1;OFICIAL;A;MIXTO;C;0.6547;0.6357;0.6565;0.6385;0.6886;0.6535;2
205088001487;IE SAN FELIX;6.340205802;-75.60832451;ANTIOQUIA;BELLO;Rural;Estrato 2;OFICIAL;A;MIXTO;C;0.6558;0.6431;0.6505;0.6423;0.6994;0.6191;0
205093000260;I E FRANCISCO CESAR;6.220089599;-75.95019324;ANTIOQUIA;BETULIA;Rural;Estrato 1;OFICIAL;A;MIXTO;D;0.5369;0.4875;0.5285;0.547;0.5929;0.5119;2
205093000413;I. E. R. LA SUCRE;6.147778;-75.941667;ANTIOQUIA;BETULIA;Rural;Estrato 1;OFICIAL;A;MIXTO;D;0.5353;0.5112;0.5324;0.5178;0.5879;0.5116;6
205101000304;I. E. R. JUAN TAMAYO;5.898403659;-75.97145363;ANTIOQUIA;CIUDAD BOLÍVAR;Rural;Estrato 1;OFICIAL;A;MIXTO;A;0.7201;0.7117;0.7331;0.7053;0.7451;0.6753;2
205101000355;I. E. R. FARALLONES;5.801987755;-76.02904271;ANTIOQUIA;CIUDAD BOLÍVAR;Rural;Estrato 2;OFICIAL;A;MIXTO;C;0.6468;0.6121;0.6481;0.646;0.6976;0.597;0
205113000407;I. E. R. ADOLFO MORENO USUGA;6.806111;-75.914167;ANTIOQUIA;BURITICÁ;Rural;Estrato 1;OFICIAL;A;MIXTO;C;0.6294;0.6067;0.6412;0.6323;0.6624;0.5548;2
205120000081;I. E. GUARUMO;7.857515851;-75.20831673;ANTIOQUIA;CÁCERES;Rural;Estrato 1;OFICIAL;A;MIXTO;B;0.6838;0.682;0.7114;0.6663;0.6931;0.6315;2
205120000366;I. E. AURELIO MEJIA;7.576111;-75.35;ANTIOQUIA;CÁCERES;Rural;Estrato 1;OFICIAL;A;MIXTO;D;0.6194;0.6059;0.6316;0.6031;0.6432;0.6002;2
205120000391;I. E. PIAMONTE;7.780278;-75.206944;ANTIOQUIA;CÁCERES;Rural;Estrato 1;OFICIAL;A;MIXTO;B;0.6996;0.6885;0.7049;0.7236;0.7052;0.6279;2
205120001435;I. E. GASPAR DE RODAS;7.7525;-75.252778;ANTIOQUIA;CÁCERES;Rural;Estrato 1;OFICIAL;A;MIXTO;C;0.6296;0.6267;0.632;0.6105;0.6547;0.6134;2
205129000121;I. E. R. DARIO GUTIERREZ RAVE;6.049377508;-75.61915957;ANTIOQUIA;CALDAS;Rural;Estrato 2;OFICIAL;A;MIXTO;D;0.6105;0.5891;0.6207;0.5889;0.6485;0.5951;0
205129000130;I. E.  SALINAS;6.08789058;-75.64419518;ANTIOQUIA;CALDAS;Rural;Estrato 2;OFICIAL;A;MIXTO;D;0.615;0.5883;0.6087;0.6073;0.6566;0.6128;0
205138000088;I. E. R. SAN PASCUAL;6.871252126;-76.03445391;ANTIOQUIA;CAÑASGORDAS;Rural;Estrato 1;OFICIAL;A;MIXTO;C;0.6453;0.6334;0.6365;0.646;0.6937;0.5604;5
205138000142;I. E. R. BUENOS AIRES;6.729162612;-76.01037273;ANTIOQUIA;CAÑASGORDAS;Rural;Estrato 1;OFICIAL;A;MIXTO;B;0.6772;0.6999;0.6628;0.6659;0.7133;0.5786;2
205138000622;I. E. R. JUNTAS DE URAMITA;6.924756152;-76.03125986;ANTIOQUIA;CAÑASGORDAS;Rural;Estrato 1;OFICIAL;A;MIXTO;D;0.5993;0.5685;0.6162;0.5993;0.6306;0.5472;2
205138000649;I. E. R. BERNARDO SIERRA;6.820046125;-76.08242385;ANTIOQUIA;CAÑASGORDAS;Rural;Estrato 1;OFICIAL;A;MIXTO;B;0.6716;0.661;0.67;0.673;0.7071;0.5971;2
205145000140;I. E. R. ALEGRIAS;5.550292506;-75.61012183;ANTIOQUIA;CARAMANTA;Rural;Estrato 1;OFICIAL;A;MIXTO;C;0.649;0.6187;0.6646;0.6531;0.6777;0.5948;2
205147000112;I. E. R. VILLA NELLY;7.759167;-76.691667;ANTIOQUIA;CAREPA;Rural;Estrato 1;OFICIAL;A;MIXTO;D;0.6143;0.5867;0.6145;0.6056;0.6539;0.6034;2
205147000147;I. E. R. LA CADENA;7.761111;-76.6425;ANTIOQUIA;CAREPA;Rural;Estrato 1;OFICIAL;A;MIXTO;C;0.6241;0.6096;0.5909;0.6222;0.6785;0.6099;2
205147000309;I. E. R. INDIGENISTA POLINES;7.706667;-76.551944;ANTIOQUIA;CHIGORODÓ;Rural;Estrato 3;OFICIAL;A;MIXTO;D;0.4763;0.4419;0.4951;0.4603;0.5002;0.4995;2
205147000350;I. E. R. PIEDRAS BLANCAS;7.746314063;-76.55601462;ANTIOQUIA;CAREPA;Rural;Estrato 1;OFICIAL;A;MIXTO;D;0.5931;0.5612;0.5826;0.585;0.6422;0.5976;2
205147000457;I.E.R. EL CERRO;7.785;-76.495833;ANTIOQUIA;CAREPA;Rural;Estrato 1;OFICIAL;A;MIXTO;D;0.5611;0.5503;0.5544;0.5367;0.6018;0.5647;2
205147000996;I.E.R. LA PROVINCIA;7.800833;-76.526389;ANTIOQUIA;CAREPA;Rural;Estrato 1;OFICIAL;A;MIXTO;C;0.6262;0.5875;0.6416;0.6195;0.6621;0.6094;2
205148000469;I. E.R. LA AURORA;6.084244964;-75.32564441;ANTIOQUIA;EL CARMEN DE VIBORAL;Rural;Estrato 2;OFICIAL;A;MIXTO;B;0.7124;0.7271;0.7199;0.6857;0.737;0.6529;0
205148000582;I. E. SANTA MARIA;6.068889;-75.378889;ANTIOQUIA;EL CARMEN DE VIBORAL;Rural;Estrato 2;OFICIAL;A;MIXTO;B;0.7089;0.7013;0.6888;0.7058;0.7449;0.693;0
205154000225;I. E. R. CACERI;7.80650246;-74.92715274;ANTIOQUIA;CAUCASIA;Rural;Estrato 1;OFICIAL;A;MIXTO;D;0.6173;0.5869;0.6422;0.5926;0.6655;0.5632;2
205154000896;I. E. MARGENTO;8.040390531;-74.95140178;ANTIOQUIA;CAUCASIA;Rural;Estrato 1;OFICIAL;A;MIXTO;D;0.5983;0.5918;0.6078;0.5896;0.6115;0.5764;2
205154001922;I. E. R. VILLA FATIMA ARRIBA;7.702248908;-74.99106019;ANTIOQUIA;CAUCASIA;Rural;Estrato 1;OFICIAL;A;MIXTO;D;0.448;0.4222;0.4909;0.4104;0.461;0.4701;6
205154002015;I. E. LICEO CONCEJO MUNICIPAL;7.9875;-75.196944;ANTIOQUIA;CAUCASIA;Urbano;Estrato 1;OFICIAL;A;MIXTO;B;0.7093;0.7328;0.7038;0.6707;0.7414;0.6753;5
205172000062;I. E. AGRICOLA DE URABA;7.652778;-76.656389;ANTIOQUIA;CHIGORODÓ;Rural;Estrato 2;OFICIAL;A;MIXTO;C;0.6202;0.6071;0.6184;0.6051;0.6577;0.598;0
205172000101;I. E. R.  BARRANQUILLITA;7.563333;-76.696667;ANTIOQUIA;CHIGORODÓ;Rural;Estrato 1;OFICIAL;A;MIXTO;C;0.6266;0.6262;0.6319;0.6052;0.6535;0.5956;2
205172000267;I. E. R. NEL UPEGUI;7.697222;-76.737778;ANTIOQUIA;CHIGORODÓ;Rural;Estrato 1;OFICIAL;A;MIXTO;D;0.5992;0.5879;0.5929;0.5828;0.6344;0.5952;6
205172001484;I. E. R. CELESTINO DIAZ;7.501944;-76.5925;ANTIOQUIA;CHIGORODÓ;Rural;Estrato 1;OFICIAL;A;MIXTO;C;0.6206;0.6039;0.6134;0.6172;0.6606;0.5822;6
205197000059;I. E. EVA TULIA QUINTERO DE TORO;6.009799946;-75.14352222;ANTIOQUIA;COCORNÁ;Rural;Estrato 1;OFICIAL;A;MIXTO;C;0.6419;0.6551;0.6383;0.6046;0.6742;0.6277;2
205197000849;I. E. SAN FRANCISCO;5.96252948;-75.10239623;ANTIOQUIA;SAN FRANCISCO;Urbano;Estrato 2;OFICIAL;A;MIXTO;A;0.7395;0.7584;0.7389;0.7303;0.7441;0.6985;0
205209000335;C. E. R. LA COMIA;6.071111;-75.972778;ANTIOQUIA;CONCORDIA;Rural;Estrato 2;OFICIAL;A;MIXTO;D;0.5626;0.5289;0.5649;0.5487;0.6148;0.5417;0
205212000061;I. E. R. GRANJAS INFANTILES;6.355;-75.509722;ANTIOQUIA;COPACABANA;Rural;Estrato 2;OFICIAL;A;MIXTO;C;0.6641;0.6454;0.6601;0.6594;0.6958;0.6503;0
205234000366;I. E. R. URAMA;7.018889556;-76.14407139;ANTIOQUIA;DABEIBA;Rural;Estrato 1;OFICIAL;A;MIXTO;D;0.5881;0.5719;0.5842;0.5767;0.6292;0.5592;2
205234000510;I. E. R. SAN RAFAEL;7.000278;-76.036667;ANTIOQUIA;DABEIBA;Rural;Estrato 1;OFICIAL;A;MIXTO;D;0.5363;0.4963;0.5384;0.5351;0.5772;0.5307;6
205234001672;I. E. R. INDIGENISTA LLANO GORDO;7.085;-76.288889;ANTIOQUIA;DABEIBA;Rural;Estrato 1;OFICIAL;A;MIXTO;D;0.477;0.4289;0.4972;0.4673;0.5087;0.4943;2
205237000031;I. E.R.PBRO ANTONIO JOSE CADAVID;6.54104058;-75.28487614;ANTIOQUIA;DONMATÍAS;Rural;Estrato 2;OFICIAL;A;MIXTO;B;0.685;0.6763;0.68;0.7018;0.7133;0.5911;0
205237000081;I. E. R. BENILDA VALENCIA;6.457615884;-75.43419763;ANTIOQUIA;DONMATÍAS;Rural;Estrato 3;OFICIAL;A;MIXTO;B;0.6748;0.6737;0.6769;0.6616;0.6909;0.6636;4
205240000106;I. E. R. BOYACA;6.340475194;-75.73278385;ANTIOQUIA;EBÉJICO;Rural;Estrato 1;OFICIAL;A;MIXTO;B;0.6795;0.6862;0.6792;0.6549;0.719;0.6153;2
205240000351;I. E. PRESBITERO GABRIEL YEPES YEPES;6.326200808;-75.76417548;ANTIOQUIA;EBÉJICO;Rural;Estrato 1;OFICIAL;A;MIXTO;B;0.6778;0.6886;0.6547;0.6678;0.7168;0.6278;2
205240000742;I. E. R. SAN PIO X;6.30791465;-75.75467549;ANTIOQUIA;EBÉJICO;Rural;Estrato 1;OFICIAL;A;MIXTO;D;0.6032;0.5846;0.6151;0.5858;0.6422;0.5579;6
205250000023;I. E. R. PUERTO CLAVER;7.712498968;-74.7515557;ANTIOQUIA;EL BAGRE;Rural;Estrato 1;OFICIAL;A;MIXTO;D;0.5873;0.5722;0.5825;0.5742;0.6312;0.5547;2
205266000392;INSTITUCION EDUCATIVA LAS PALMAS;6.152875287;-75.53248088;ANTIOQUIA;ENVIGADO;Rural;Estrato 2;OFICIAL;A;MIXTO;B;0.6957;0.6726;0.6932;0.6978;0.7186;0.6969;1
205282000165;I. E. R. PALOMOS;5.969322674;-75.67762254;ANTIOQUIA;FREDONIA;Rural;Estrato 3;OFICIAL;A;MIXTO;B;0.6862;0.6639;0.6686;0.6935;0.7255;0.666;2
205282000441;I. E. R. MURRAPAL;5.902222;-75.698056;ANTIOQUIA;FREDONIA;Rural;Estrato 1;OFICIAL;A;MIXTO;D;0.617;0.5966;0.6317;0.5951;0.6584;0.5752;2
205282000475;I. E. R.  EDELMIRA  ALVAREZ;5.892214753;-75.65638396;ANTIOQUIA;FREDONIA;Rural;Estrato 1;OFICIAL;A;MIXTO;C;0.6223;0.6023;0.6244;0.6254;0.6383;0.6183;6
205282000483;I. E. R. JOSE MARIA OBANDO;5.933889;-75.660556;ANTIOQUIA;FREDONIA;Rural;Estrato 2;OFICIAL;A;MIXTO;B;0.6833;0.6706;0.6612;0.6847;0.7296;0.6453;0
205282000513;I. E. DE MINAS;5.898889;-75.7375;ANTIOQUIA;FREDONIA;Rural;Estrato 2;OFICIAL;A;MIXTO;D;0.6145;0.5956;0.6207;0.5958;0.64;0.632;0
205282000602;I. E. LLANO GRANDE;5.86377246;-75.6877057;ANTIOQUIA;FREDONIA;Rural;Estrato 2;OFICIAL;A;MIXTO;D;0.5975;0.5318;0.6095;0.606;0.6378;0.6121;0
205284000120;I. E. R. NOBOGACITA;6.818056;-76.207222;ANTIOQUIA;FRONTINO;Rural;Estrato 1;OFICIAL;A;MIXTO;C;0.6564;0.6646;0.6414;0.6351;0.7004;0.6087;5
205284000162;I. E. R. LA BLANQUITA DEL MURRI;6.745007761;-76.36667327;ANTIOQUIA;FRONTINO;Rural;Estrato 1;OFICIAL;A;MIXTO;D;0.614;0.6184;0.6306;0.5751;0.6453;0.5731;2
205284000464;I. E. R. GABRIELA WHITE DE VELEZ;6.805902614;-76.2465026;ANTIOQUIA;FRONTINO;Rural;Estrato 1;OFICIAL;A;MIXTO;C;0.6498;0.6318;0.6515;0.6416;0.6817;0.628;5
205306000099;I.E.R. SANTA ROSA DE LIMA;6.693213546;-75.94916151;ANTIOQUIA;GIRALDO;Rural;Estrato 1;OFICIAL;A;MIXTO;C;0.6428;0.6187;0.6541;0.6299;0.675;0.6232;2
205308000312;I.E.R. NUESTRA SEÑORA DEL CARMEN;6.375;-75.422222;ANTIOQUIA;GIRARDOTA;Rural;Estrato 2;OFICIAL;A;MIXTO;C;0.6272;0.6383;0.6319;0.5879;0.6661;0.5813;0
205308000452;I. E. SAN ANDRES;6.399754126;-75.43991778;ANTIOQUIA;GIRARDOTA;Rural;Estrato 2;OFICIAL;A;MIXTO;A;0.7299;0.7222;0.7288;0.7252;0.7505;0.708;0
205310000354;I. E. R. EL SALTO;6.784101823;-75.23852511;ANTIOQUIA;GÓMEZ PLATA;Rural;Estrato 2;OFICIAL;A;MIXTO;C;0.6509;0.6616;0.641;0.624;0.6818;0.6366;0
205318000167;I. E. ROMERAL;6.305355363;-75.45768552;ANTIOQUIA;GUARNE;Rural;Estrato 2;OFICIAL;A;MIXTO;B;0.6939;0.686;0.7061;0.6715;0.7186;0.6736;0
205318000183;I. E. R. PIEDRAS BLANCAS;6.276373527;-75.47028477;ANTIOQUIA;GUARNE;Rural;Estrato 2;OFICIAL;A;MIXTO;B;0.6976;0.6954;0.7074;0.675;0.7212;0.6726;0
205318000302;I.E.R. EZEQUIEL SIERRA;6.316384164;-75.40646762;ANTIOQUIA;GUARNE;Rural;Estrato 2;OFICIAL;A;MIXTO;B;0.697;0.6906;0.6976;0.6993;0.7157;0.6513;0
205318000345;I.E.R. HOJAS ANCHAS;6.240595952;-75.42539766;ANTIOQUIA;GUARNE;Rural;Estrato 2;OFICIAL;A;MIXTO;B;0.6769;0.6636;0.684;0.6711;0.695;0.6588;0
205318000451;I. E. R. CHAPARRAL;6.227425635;-75.40109147;ANTIOQUIA;GUARNE;Rural;Estrato 2;OFICIAL;A;MIXTO;B;0.7031;0.7074;0.7071;0.69;0.7208;0.6643;0
205347000095;I. E. R. ALTO DEL CORRAL;6.209107394;-75.77527483;ANTIOQUIA;HELICONIA;Rural;Estrato 2;OFICIAL;A;MIXTO;C;0.6476;0.617;0.6407;0.6618;0.6842;0.6075;0
205347000109;I. E. R. HECTOR HIGINIO BEDOYA VARGAS;6.168024612;-75.72138896;ANTIOQUIA;HELICONIA;Rural;Estrato 1;OFICIAL;A;MIXTO;D;0.6195;0.5936;0.6206;0.6122;0.6568;0.6041;5
205360000151;I.E. LOS GOMEZ;6.190601578;-75.61139154;ANTIOQUIA;ITAGÜÍ;Rural;Estrato 1;OFICIAL;A;MIXTO;C;0.6601;0.6464;0.6523;0.6463;0.7008;0.6441;2
205360001254;I.E. MARIA JOSEFA ESCOBAR;6.188864572;-75.61581734;ANTIOQUIA;ITAGÜÍ;Rural;Estrato 2;OFICIAL;A;MIXTO;B;0.6741;0.6497;0.6675;0.6608;0.722;0.6636;1
205361000197;I. E. JESUS MARIA VALLE JARAMILLO;7.290709371;-75.72284859;ANTIOQUIA;ITUANGO;Rural;Estrato 1;OFICIAL;A;MIXTO;D;0.5912;0.5598;0.6039;0.5673;0.6329;0.5944;2
205361000324;I. E. R. JOSE FELIX DE RESTREPO;7.243611;-75.777778;ANTIOQUIA;ITUANGO;Rural;Estrato 1;OFICIAL;A;MIXTO;D;0.5954;0.5706;0.6011;0.5818;0.6327;0.581;2
205361000430;I. E. R. LA PEREZ;7.258889;-75.799722;ANTIOQUIA;ITUANGO;Rural;Estrato 1;OFICIAL;A;MIXTO;D;0.5401;0.4984;0.5497;0.5477;0.5687;0.5281;2
205361001029;I. E. LUIS MARIA PRECIADO ECHAVARRIA;7.32095232;-75.61679839;ANTIOQUIA;ITUANGO;Rural;Estrato 1;OFICIAL;A;MIXTO;C;0.6207;0.6065;0.6279;0.6082;0.6535;0.5805;2
205364000163;I. E. R. KARMATARÚA;5.615478346;-75.87396447;ANTIOQUIA;JARDÍN;Rural;Estrato 1;OFICIAL;A;MIXTO;D;0.5944;0.5443;0.594;0.6074;0.6313;0.5967;2
205364000171;I. E.  DE DESARROLLO RURAL MIGUEL VALENCIA;5.591111;-75.841111;ANTIOQUIA;JARDÍN;Rural;Estrato 2;OFICIAL;A;MIXTO;C;0.6441;0.6412;0.6575;0.6263;0.6743;0.5755;1
205368000478;I. E. R. SAN FRANCISCO DE ASIS;5.770278;-75.733056;ANTIOQUIA;JERICÓ;Rural;Estrato 2;OFICIAL;A;MIXTO;B;0.6718;0.6593;0.6792;0.6751;0.6972;0.6005;1
205376000070;I. E. FRANCISCO MARIA CARDONA;5.966211374;-75.48811317;ANTIOQUIA;LA CEJA;Rural;Estrato 2;OFICIAL;A;MIXTO;B;0.7137;0.7456;0.6973;0.6962;0.7135;0.7207;0
205380000050;I. E. ANA EVA ESCOBAR GONZALEZ;6.148611;-75.643889;ANTIOQUIA;LA ESTRELLA;Rural;Estrato 2;OFICIAL;A;MIXTO;B;0.6949;0.7039;0.6793;0.6737;0.7266;0.6832;0
205380000165;I. E. JOSE ANTONIO GALAN;6.118995669;-75.63750313;ANTIOQUIA;LA ESTRELLA;Rural;Estrato 2;OFICIAL;A;MIXTO;B;0.6795;0.6691;0.6799;0.6624;0.7152;0.6539;1
205387000047;I. E. R. LA UNION;6.186413358;-74.70292864;ANTIOQUIA;PUERTO NARE;Rural;Estrato 1;OFICIAL;A;MIXTO;D;0.5358;0.5086;0.547;0.5145;0.5668;0.5546;2
205387000128;INSTITUCIÓN EDUCATIVA RURAL JORGE ENRIQUE VILLEGAS;6.212599212;-74.58105119;ANTIOQUIA;PUERTO NARE;Rural;Estrato 2;OFICIAL;A;MIXTO;C;0.6441;0.6181;0.6447;0.6326;0.6801;0.6468;0
205387000322;I. E. R. LA SIERRA;6.187487335;-74.58129813;ANTIOQUIA;PUERTO NARE;Rural;Estrato 2;OFICIAL;A;MIXTO;C;0.62;0.6044;0.6233;0.6007;0.6662;0.5768;1
205400000035;I. E. R. SAN JUAN;5.947332181;-75.30875091;ANTIOQUIA;LA UNIÓN;Rural;Estrato 2;OFICIAL;A;MIXTO;C;0.6428;0.6407;0.6445;0.6369;0.6686;0.5847;0
205400000213;I. E. MARCO EMILIO LOPEZ GALLEGO;5.973708952;-75.36129991;ANTIOQUIA;LA UNIÓN;Rural;Estrato 1;OFICIAL;A;MIXTO;B;0.6712;0.683;0.6806;0.648;0.6838;0.639;2
205411000401;I. E. SAN DIEGO;6.721429759;-75.77418469;ANTIOQUIA;LIBORINA;Rural;Estrato 1;OFICIAL;A;MIXTO;C;0.6254;0.6213;0.6065;0.616;0.6656;0.6016;5
205425000056;I. E. R. LA FLORESTA;6.477007148;-74.70034535;ANTIOQUIA;MACEO;Rural;Estrato 1;OFICIAL;A;MIXTO;C;0.6385;0.6339;0.6203;0.6235;0.6895;0.5994;2
205440000267;I. E. R. FRANCISCO MANZUETO GIRALDO;6.163350856;-75.35180557;ANTIOQUIA;MARINILLA;Rural;Estrato 2;OFICIAL;A;MIXTO;B;0.6832;0.664;0.6927;0.6776;0.7073;0.6566;0
205440000305;I E R ROSALIA HOYOS;6.192564689;-75.33992611;ANTIOQUIA;MARINILLA;Rural;Estrato 2;OFICIAL;A;MIXTO;B;0.7068;0.7022;0.7057;0.6956;0.7201;0.7172;0
205440000798;I. E. R. MARIA DEL ROSARIO;6.221111;-75.27;ANTIOQUIA;MARINILLA;Rural;Estrato 2;OFICIAL;A;MIXTO;D;0.5805;0.5574;0.5841;0.5632;0.6203;0.5712;0
205480000138;I.E. PAVARANDÓ GRANDE;7.277806292;-76.55783266;ANTIOQUIA;MUTATÁ;Rural;Estrato 1;OFICIAL;A;MIXTO;D;0.5973;0.6164;0.5867;0.5607;0.6282;0.5893;6
205480000341;I. E. R. LA INMACULADA CAUCHERAS;7.336309306;-76.47946511;ANTIOQUIA;MUTATÁ;Rural;Estrato 1;OFICIAL;A;MIXTO;B;0.7019;0.7266;0.6848;0.6957;0.7154;0.6577;2
205483000236;I. E. PUERTO VENUS;5.527144285;-75.19555713;ANTIOQUIA;NARIÑO;Rural;Estrato 2;OFICIAL;A;MIXTO;C;0.6283;0.6045;0.6425;0.6186;0.6675;0.5684;0
205490000098;I.E.R. MELLO VILLAVICENCIO;8.455556;-76.566111;ANTIOQUIA;NECOCLÍ;Rural;Estrato 1;OFICIAL;A;MIXTO;D;0.525;0.4932;0.5298;0.5143;0.5659;0.5163;2
205490000128;I. E. R. MULATOS;8.433611;-76.781667;ANTIOQUIA;NECOCLÍ;Rural;Estrato 1;OFICIAL;A;MIXTO;D;0.5905;0.5549;0.6037;0.5891;0.6262;0.5542;2
205490000161;I. E. R. PUEBLO NUEVO;8.413008179;-76.64546963;ANTIOQUIA;NECOCLÍ;Rural;Estrato 1;OFICIAL;A;MIXTO;D;0.58;0.5614;0.5878;0.5579;0.6212;0.5554;2
205490000462;C E R CARIBIA;8.503170697;-76.67057354;ANTIOQUIA;NECOCLÍ;Rural;Estrato 1;OFICIAL;A;MIXTO;D;0.5581;0.5657;0.5722;0.5069;0.587;0.5602;6
205490000578;I. E. R. ZAPATA;8.683655212;-76.63763168;ANTIOQUIA;NECOCLÍ;Rural;Estrato 1;OFICIAL;A;MIXTO;C;0.639;0.6382;0.6562;0.6291;0.6453;0.6001;2
205490000594;I. E. R. MULATICOS PIEDRECITAS;8.528889;-76.570556;ANTIOQUIA;NECOCLÍ;Rural;Estrato 1;OFICIAL;A;MIXTO;D;0.5047;0.4684;0.5033;0.4731;0.5763;0.4985;6
205490000730;I. E. R. SAN SEBASTIAN DE URABA;8.482014425;-76.79465937;ANTIOQUIA;NECOCLÍ;Rural;Estrato 1;OFICIAL;A;MIXTO;D;0.5627;0.5309;0.5704;0.5388;0.612;0.5589;2
205490000900;I. E. R. LAS CHANGAS;8.548585108;-76.57544209;ANTIOQUIA;NECOCLÍ;Rural;Estrato 1;OFICIAL;A;MIXTO;D;0.6016;0.605;0.6101;0.585;0.616;0.5728;2
205490001213;I. E. R. EL TOTUMO;8.332487218;-76.74331306;ANTIOQUIA;NECOCLÍ;Rural;Estrato 1;OFICIAL;A;MIXTO;D;0.6071;0.5918;0.6385;0.583;0.6278;0.569;2
205490001337;I. E. R. TULAPITA;8.368889;-76.621667;ANTIOQUIA;NECOCLÍ;Rural;Estrato 1;OFICIAL;A;MIXTO;D;0.616;0.6021;0.6067;0.6103;0.6489;0.6033;2
205490001400;I. E. R. MELLITO;8.547222;-76.670556;ANTIOQUIA;NECOCLÍ;Rural;Estrato 1;OFICIAL;A;MIXTO;D;0.6058;0.5998;0.6169;0.5934;0.6286;0.5588;2
